{"cantidad": 24, "inicio": 0, "parametros": {}, "provincias": [{"centroide": {"lat": -26.8753965086829, "lon": -54.6516966230371}, "id": "54", "nombre": "Misiones", "departamentos": {"cantidad": 10, "departamentos": [{"centroide": {"lat": -27.5507848284827, "lon": -55.856845031149}, "id": "54028", "nombre": "Capital", "provincia": {"id": "54", "nombre": "Misiones"}, "municipios": []}, {"centroide": {"lat": -25.8747354912768, "lon": -54.4004185891377}, "id": "54063", "nombre": "Iguaz\u00fa", "provincia": {"id": "54", "nombre": "Misiones"}, "municipios": []}, {"centroide": {"lat": -27.4763636003081, "lon": -55.0712221116124}, "id": "54091", "nombre": "Ober\u00e1", "provincia": {"id": "54", "nombre": "Misiones"}, "municipios": []}, {"centroide": {"lat": -27.1765939564162, "lon": -55.3392901890006}, "id": "54098", "nombre": "San Ignacio", "provincia": {"id": "54", "nombre": "Misiones"}, "municipios": []}, {"centroide": {"lat": -27.3786143623767, "lon": -54.634090486794}, "id": "54119", "nombre": "25 de Mayo", "provincia": {"id": "54", "nombre": "Misiones"}, "municipios": []}, {"centroide": {"lat": -27.7771031457714, "lon": -55.1674595934642}, "id": "54105", "nombre": "San Javier", "provincia": {"id": "54", "nombre": "Misiones"}, "municipios": []}, {"centroide": {"lat": -27.8888038850636, "lon": -55.6782740306512}, "id": "54007", "nombre": "Ap\u00f3stoles", "provincia": {"id": "54", "nombre": "Misiones"}, "municipios": [{"centroide": {"lat": -27.9025022905258, "lon": -55.7217304493641}, "id": "540007", "nombre": "Ap\u00f3stoles", "provincia": {"id": "54", "nombre": "Misiones"}}, {"centroide": {"lat": -27.9918146633049, "lon": -55.6141377080929}, "id": "540028", "nombre": "Tres Capones", "provincia": {"id": "54", "nombre": "Misiones"}}]}, {"centroide": {"lat": -26.3138449973517, "lon": -54.4407363386818}, "id": "54042", "nombre": "Eldorado", "provincia": {"id": "54", "nombre": "Misiones"}, "municipios": [{"centroide": {"lat": -26.4059052828746, "lon": -54.3574983163211}, "id": "540168", "nombre": "Santiago de Liniers", "provincia": {"id": "54", "nombre": "Misiones"}}]}, {"centroide": {"lat": -26.6299609405552, "lon": -53.9629779665021}, "id": "54112", "nombre": "San Pedro", "provincia": {"id": "54", "nombre": "Misiones"}, "municipios": [{"centroide": {"lat": -26.7112090360395, "lon": -53.9412291264285}, "id": "540504", "nombre": "San Pedro", "provincia": {"id": "54", "nombre": "Misiones"}}]}, {"centroide": {"lat": -26.6579081276292, "lon": -54.5631774073677}, "id": "54084", "nombre": "Montecarlo", "provincia": {"id": "54", "nombre": "Misiones"}, "municipios": [{"centroide": {"lat": -26.639779729458, "lon": -54.5625759117353}, "id": "540343", "nombre": "Montecarlo", "provincia": {"id": "54", "nombre": "Misiones"}}]}], "inicio": 0, "parametros": {"provincia": ["54"]}, "total": 17}}, {"centroide": {"lat": -33.7577257449137, "lon": -66.0281298195836}, "id": "74", "nombre": "San Luis"}, {"centroide": {"lat": -30.8653679979618, "lon": -68.8894908486844}, "id": "70", "nombre": "San Juan"}, {"centroide": {"lat": -32.0588735436448, "lon": -59.2014475514635}, "id": "30", "nombre": "Entre R\u00edos"}, {"centroide": {"lat": -48.8154851827063, "lon": -69.9557621671973}, "id": "78", "nombre": "Santa Cruz"}, {"centroide": {"lat": -40.4057957178801, "lon": -67.229329893694}, "id": "62", "nombre": "R\u00edo Negro"}, {"centroide": {"lat": -43.7886233529878, "lon": -68.5267593943345}, "id": "26", "nombre": "Chubut"}, {"centroide": {"lat": -32.142932663607, "lon": -63.8017532741662}, "id": "14", "nombre": "C\u00f3rdoba"}, {"centroide": {"lat": -34.6298873058957, "lon": -68.5831228183798}, "id": "50", "nombre": "Mendoza"}, {"centroide": {"lat": -29.685776298315, "lon": -67.1817359694432}, "id": "46", "nombre": "La Rioja"}, {"centroide": {"lat": -27.3358332810217, "lon": -66.9476824299928}, "id": "10", "nombre": "Catamarca"}, {"centroide": {"lat": -37.1315537735949, "lon": -65.4466546606951}, "id": "42", "nombre": "La Pampa"}, {"centroide": {"lat": -27.7824116550944, "lon": -63.2523866568588}, "id": "86", "nombre": "Santiago del Estero"}, {"centroide": {"lat": -28.7743047046407, "lon": -57.8012191977913}, "id": "18", "nombre": "Corrientes"}, {"centroide": {"lat": -30.7069271588117, "lon": -60.9498369430241}, "id": "82", "nombre": "Santa Fe"}, {"centroide": {"lat": -26.9478001830786, "lon": -65.3647579441481}, "id": "90", "nombre": "Tucum\u00e1n"}, {"centroide": {"lat": -38.6417575824599, "lon": -70.1185705180601}, "id": "58", "nombre": "Neuqu\u00e9n"}, {"centroide": {"lat": -24.2991344492002, "lon": -64.8144629600627}, "id": "66", "nombre": "Salta"}, {"centroide": {"lat": -26.3864309061226, "lon": -60.7658307438603}, "id": "22", "nombre": "Chaco"}, {"centroide": {"lat": -24.894972594871, "lon": -59.9324405800872}, "id": "34", "nombre": "Formosa"}, {"centroide": {"lat": -23.3200784211351, "lon": -65.7642522180337}, "id": "38", "nombre": "Jujuy"}, {"centroide": {"lat": -34.6144934119689, "lon": -58.4458563545429}, "id": "02", "nombre": "Ciudad Aut\u00f3noma de Buenos Aires"}, {"centroide": {"lat": -36.6769415180527, "lon": -60.5588319815719}, "id": "06", "nombre": "Buenos Aires"}, {"centroide": {"lat": -82.52151781221, "lon": -50.7427486049785}, "id": "94", "nombre": "Tierra del Fuego, Ant\u00e1rtida e Islas del Atl\u00e1ntico Sur"}], "total": 24}{"cantidad": 24, "inicio": 0, "parametros": {}, "provincias": [{"centroide": {"lat": -26.8753965086829, "lon": -54.6516966230371}, "id": "54", "nombre": "Misiones", "departamentos": {"cantidad": 10, "departamentos": [{"centroide": {"lat": -27.5507848284827, "lon": -55.856845031149}, "id": "54028", "nombre": "Capital", "provincia": {"id": "54", "nombre": "Misiones"}, "municipios": []}, {"centroide": {"lat": -25.8747354912768, "lon": -54.4004185891377}, "id": "54063", "nombre": "Iguaz\u00fa", "provincia": {"id": "54", "nombre": "Misiones"}, "municipios": []}, {"centroide": {"lat": -27.4763636003081, "lon": -55.0712221116124}, "id": "54091", "nombre": "Ober\u00e1", "provincia": {"id": "54", "nombre": "Misiones"}, "municipios": []}, {"centroide": {"lat": -27.1765939564162, "lon": -55.3392901890006}, "id": "54098", "nombre": "San Ignacio", "provincia": {"id": "54", "nombre": "Misiones"}, "municipios": []}, {"centroide": {"lat": -27.3786143623767, "lon": -54.634090486794}, "id": "54119", "nombre": "25 de Mayo", "provincia": {"id": "54", "nombre": "Misiones"}, "municipios": []}, {"centroide": {"lat": -27.7771031457714, "lon": -55.1674595934642}, "id": "54105", "nombre": "San Javier", "provincia": {"id": "54", "nombre": "Misiones"}, "municipios": []}, {"centroide": {"lat": -27.8888038850636, "lon": -55.6782740306512}, "id": "54007", "nombre": "Ap\u00f3stoles", "provincia": {"id": "54", "nombre": "Misiones"}, "municipios": [{"centroide": {"lat": -27.9025022905258, "lon": -55.7217304493641}, "id": "540007", "nombre": "Ap\u00f3stoles", "provincia": {"id": "54", "nombre": "Misiones"}}, {"centroide": {"lat": -27.9918146633049, "lon": -55.6141377080929}, "id": "540028", "nombre": "Tres Capones", "provincia": {"id": "54", "nombre": "Misiones"}}]}, {"centroide": {"lat": -26.3138449973517, "lon": -54.4407363386818}, "id": "54042", "nombre": "Eldorado", "provincia": {"id": "54", "nombre": "Misiones"}, "municipios": [{"centroide": {"lat": -26.4059052828746, "lon": -54.3574983163211}, "id": "540168", "nombre": "Santiago de Liniers", "provincia": {"id": "54", "nombre": "Misiones"}}]}, {"centroide": {"lat": -26.6299609405552, "lon": -53.9629779665021}, "id": "54112", "nombre": "San Pedro", "provincia": {"id": "54", "nombre": "Misiones"}, "municipios": [{"centroide": {"lat": -26.7112090360395, "lon": -53.9412291264285}, "id": "540504", "nombre": "San Pedro", "provincia": {"id": "54", "nombre": "Misiones"}}]}, {"centroide": {"lat": -26.6579081276292, "lon": -54.5631774073677}, "id": "54084", "nombre": "Montecarlo", "provincia": {"id": "54", "nombre": "Misiones"}, "municipios": [{"centroide": {"lat": -26.639779729458, "lon": -54.5625759117353}, "id": "540343", "nombre": "Montecarlo", "provincia": {"id": "54", "nombre": "Misiones"}}]}], "inicio": 0, "parametros": {"provincia": ["54"]}, "total": 17}}, {"centroide": {"lat": -33.7577257449137, "lon": -66.0281298195836}, "id": "74", "nombre": "San Luis", "departamentos": {"cantidad": 9, "departamentos": [{"centroide": {"lat": -32.1656565638277, "lon": -66.5422509844147}, "id": "74007", "nombre": "Ayacucho", "provincia": {"id": "74", "nombre": "San Luis"}, "municipios": [{"centroide": {"lat": -32.5944806749798, "lon": -66.1262207074521}, "id": "740028", "nombre": "San Francisco", "provincia": {"id": "74", "nombre": "San Luis"}}]}, {"centroide": {"lat": -32.7356115411335, "lon": -66.7150069507327}, "id": "74014", "nombre": "Belgrano", "provincia": {"id": "74", "nombre": "San Luis"}, "municipios": []}, {"centroide": {"lat": -35.369087077487, "lon": -65.8148193795656}, "id": "74042", "nombre": "Gobernador Dupuy", "provincia": {"id": "74", "nombre": "San Luis"}, "municipios": [{"centroide": {"lat": -34.7784823489821, "lon": -65.6871985106842}, "id": "746168", "nombre": "Batavia", "provincia": {"id": "74", "nombre": "San Luis"}}]}, {"centroide": {"lat": -32.216548125306, "lon": -65.3939560584901}, "id": "74049", "nombre": "Jun\u00edn", "provincia": {"id": "74", "nombre": "San Luis"}, "municipios": [{"centroide": {"lat": -32.3529400330367, "lon": -65.0070214618305}, "id": "740105", "nombre": "Merlo", "provincia": {"id": "74", "nombre": "San Luis"}}]}, {"centroide": {"lat": -32.7269672116015, "lon": -65.1982374778981}, "id": "74028", "nombre": "Chacabuco", "provincia": {"id": "74", "nombre": "San Luis"}, "municipios": []}, {"centroide": {"lat": -33.9008795169272, "lon": -66.5025775641531}, "id": "74056", "nombre": "Juan Mart\u00edn de Pueyrred\u00f3n", "provincia": {"id": "74", "nombre": "San Luis"}, "municipios": [{"centroide": {"lat": -33.8049276377293, "lon": -66.4148690167955}, "id": "746280", "nombre": "Zanjitas", "provincia": {"id": "74", "nombre": "San Luis"}}, {"centroide": {"lat": -33.7572721991329, "lon": -66.6446207562444}, "id": "746252", "nombre": "Beazley", "provincia": {"id": "74", "nombre": "San Luis"}}, {"centroide": {"lat": -33.4521935892927, "lon": -66.6363665748128}, "id": "746245", "nombre": "Balde", "provincia": {"id": "74", "nombre": "San Luis"}}, {"centroide": {"lat": -33.210106793768, "lon": -66.2316846459176}, "id": "746266", "nombre": "P. de los Funes", "provincia": {"id": "74", "nombre": "San Luis"}}, {"centroide": {"lat": -33.2951079835674, "lon": -66.2274958520562}, "id": "740119", "nombre": "Juana Koslay", "provincia": {"id": "74", "nombre": "San Luis"}}]}, {"centroide": {"lat": -33.8905514573194, "lon": -65.56285207424}, "id": "74035", "nombre": "General Pedernera", "provincia": {"id": "74", "nombre": "San Luis"}, "municipios": []}, {"centroide": {"lat": -32.5784192360116, "lon": -65.7095887724917}, "id": "74063", "nombre": "Libertador General San Mart\u00edn", "provincia": {"id": "74", "nombre": "San Luis"}, "municipios": []}, {"centroide": {"lat": -33.1068820542746, "lon": -65.900790202998}, "id": "74021", "nombre": "Coronel Pringles", "provincia": {"id": "74", "nombre": "San Luis"}, "municipios": [{"centroide": {"lat": -33.4675887566232, "lon": -65.8176668186051}, "id": "746049", "nombre": "Fraga", "provincia": {"id": "74", "nombre": "San Luis"}}, {"centroide": {"lat": -32.8230037708213, "lon": -66.1002883078041}, "id": "746035", "nombre": "Carolina", "provincia": {"id": "74", "nombre": "San Luis"}}]}], "inicio": 0, "parametros": {"provincia": ["74"]}, "total": 9}}, {"centroide": {"lat": -30.8653679979618, "lon": -68.8894908486844}, "id": "70", "nombre": "San Juan"}, {"centroide": {"lat": -32.0588735436448, "lon": -59.2014475514635}, "id": "30", "nombre": "Entre R\u00edos"}, {"centroide": {"lat": -48.8154851827063, "lon": -69.9557621671973}, "id": "78", "nombre": "Santa Cruz"}, {"centroide": {"lat": -40.4057957178801, "lon": -67.229329893694}, "id": "62", "nombre": "R\u00edo Negro"}, {"centroide": {"lat": -43.7886233529878, "lon": -68.5267593943345}, "id": "26", "nombre": "Chubut"}, {"centroide": {"lat": -32.142932663607, "lon": -63.8017532741662}, "id": "14", "nombre": "C\u00f3rdoba"}, {"centroide": {"lat": -34.6298873058957, "lon": -68.5831228183798}, "id": "50", "nombre": "Mendoza"}, {"centroide": {"lat": -29.685776298315, "lon": -67.1817359694432}, "id": "46", "nombre": "La Rioja"}, {"centroide": {"lat": -27.3358332810217, "lon": -66.9476824299928}, "id": "10", "nombre": "Catamarca"}, {"centroide": {"lat": -37.1315537735949, "lon": -65.4466546606951}, "id": "42", "nombre": "La Pampa"}, {"centroide": {"lat": -27.7824116550944, "lon": -63.2523866568588}, "id": "86", "nombre": "Santiago del Estero"}, {"centroide": {"lat": -28.7743047046407, "lon": -57.8012191977913}, "id": "18", "nombre": "Corrientes"}, {"centroide": {"lat": -30.7069271588117, "lon": -60.9498369430241}, "id": "82", "nombre": "Santa Fe"}, {"centroide": {"lat": -26.9478001830786, "lon": -65.3647579441481}, "id": "90", "nombre": "Tucum\u00e1n"}, {"centroide": {"lat": -38.6417575824599, "lon": -70.1185705180601}, "id": "58", "nombre": "Neuqu\u00e9n"}, {"centroide": {"lat": -24.2991344492002, "lon": -64.8144629600627}, "id": "66", "nombre": "Salta"}, {"centroide": {"lat": -26.3864309061226, "lon": -60.7658307438603}, "id": "22", "nombre": "Chaco"}, {"centroide": {"lat": -24.894972594871, "lon": -59.9324405800872}, "id": "34", "nombre": "Formosa"}, {"centroide": {"lat": -23.3200784211351, "lon": -65.7642522180337}, "id": "38", "nombre": "Jujuy"}, {"centroide": {"lat": -34.6144934119689, "lon": -58.4458563545429}, "id": "02", "nombre": "Ciudad Aut\u00f3noma de Buenos Aires"}, {"centroide": {"lat": -36.6769415180527, "lon": -60.5588319815719}, "id": "06", "nombre": "Buenos Aires"}, {"centroide": {"lat": -82.52151781221, "lon": -50.7427486049785}, "id": "94", "nombre": "Tierra del Fuego, Ant\u00e1rtida e Islas del Atl\u00e1ntico Sur"}], "total": 24}{"cantidad": 24, "inicio": 0, "parametros": {}, "provincias": [{"centroide": {"lat": -26.8753965086829, "lon": -54.6516966230371}, "id": "54", "nombre": "Misiones", "departamentos": {"cantidad": 10, "departamentos": [{"centroide": {"lat": -27.5507848284827, "lon": -55.856845031149}, "id": "54028", "nombre": "Capital", "provincia": {"id": "54", "nombre": "Misiones"}, "municipios": []}, {"centroide": {"lat": -25.8747354912768, "lon": -54.4004185891377}, "id": "54063", "nombre": "Iguaz\u00fa", "provincia": {"id": "54", "nombre": "Misiones"}, "municipios": []}, {"centroide": {"lat": -27.4763636003081, "lon": -55.0712221116124}, "id": "54091", "nombre": "Ober\u00e1", "provincia": {"id": "54", "nombre": "Misiones"}, "municipios": []}, {"centroide": {"lat": -27.1765939564162, "lon": -55.3392901890006}, "id": "54098", "nombre": "San Ignacio", "provincia": {"id": "54", "nombre": "Misiones"}, "municipios": []}, {"centroide": {"lat": -27.3786143623767, "lon": -54.634090486794}, "id": "54119", "nombre": "25 de Mayo", "provincia": {"id": "54", "nombre": "Misiones"}, "municipios": []}, {"centroide": {"lat": -27.7771031457714, "lon": -55.1674595934642}, "id": "54105", "nombre": "San Javier", "provincia": {"id": "54", "nombre": "Misiones"}, "municipios": []}, {"centroide": {"lat": -27.8888038850636, "lon": -55.6782740306512}, "id": "54007", "nombre": "Ap\u00f3stoles", "provincia": {"id": "54", "nombre": "Misiones"}, "municipios": [{"centroide": {"lat": -27.9025022905258, "lon": -55.7217304493641}, "id": "540007", "nombre": "Ap\u00f3stoles", "provincia": {"id": "54", "nombre": "Misiones"}}, {"centroide": {"lat": -27.9918146633049, "lon": -55.6141377080929}, "id": "540028", "nombre": "Tres Capones", "provincia": {"id": "54", "nombre": "Misiones"}}]}, {"centroide": {"lat": -26.3138449973517, "lon": -54.4407363386818}, "id": "54042", "nombre": "Eldorado", "provincia": {"id": "54", "nombre": "Misiones"}, "municipios": [{"centroide": {"lat": -26.4059052828746, "lon": -54.3574983163211}, "id": "540168", "nombre": "Santiago de Liniers", "provincia": {"id": "54", "nombre": "Misiones"}}]}, {"centroide": {"lat": -26.6299609405552, "lon": -53.9629779665021}, "id": "54112", "nombre": "San Pedro", "provincia": {"id": "54", "nombre": "Misiones"}, "municipios": [{"centroide": {"lat": -26.7112090360395, "lon": -53.9412291264285}, "id": "540504", "nombre": "San Pedro", "provincia": {"id": "54", "nombre": "Misiones"}}]}, {"centroide": {"lat": -26.6579081276292, "lon": -54.5631774073677}, "id": "54084", "nombre": "Montecarlo", "provincia": {"id": "54", "nombre": "Misiones"}, "municipios": [{"centroide": {"lat": -26.639779729458, "lon": -54.5625759117353}, "id": "540343", "nombre": "Montecarlo", "provincia": {"id": "54", "nombre": "Misiones"}}]}], "inicio": 0, "parametros": {"provincia": ["54"]}, "total": 17}}, {"centroide": {"lat": -33.7577257449137, "lon": -66.0281298195836}, "id": "74", "nombre": "San Luis", "departamentos": {"cantidad": 9, "departamentos": [{"centroide": {"lat": -32.1656565638277, "lon": -66.5422509844147}, "id": "74007", "nombre": "Ayacucho", "provincia": {"id": "74", "nombre": "San Luis"}, "municipios": [{"centroide": {"lat": -32.5944806749798, "lon": -66.1262207074521}, "id": "740028", "nombre": "San Francisco", "provincia": {"id": "74", "nombre": "San Luis"}}]}, {"centroide": {"lat": -32.7356115411335, "lon": -66.7150069507327}, "id": "74014", "nombre": "Belgrano", "provincia": {"id": "74", "nombre": "San Luis"}, "municipios": []}, {"centroide": {"lat": -35.369087077487, "lon": -65.8148193795656}, "id": "74042", "nombre": "Gobernador Dupuy", "provincia": {"id": "74", "nombre": "San Luis"}, "municipios": [{"centroide": {"lat": -34.7784823489821, "lon": -65.6871985106842}, "id": "746168", "nombre": "Batavia", "provincia": {"id": "74", "nombre": "San Luis"}}]}, {"centroide": {"lat": -32.216548125306, "lon": -65.3939560584901}, "id": "74049", "nombre": "Jun\u00edn", "provincia": {"id": "74", "nombre": "San Luis"}, "municipios": [{"centroide": {"lat": -32.3529400330367, "lon": -65.0070214618305}, "id": "740105", "nombre": "Merlo", "provincia": {"id": "74", "nombre": "San Luis"}}]}, {"centroide": {"lat": -32.7269672116015, "lon": -65.1982374778981}, "id": "74028", "nombre": "Chacabuco", "provincia": {"id": "74", "nombre": "San Luis"}, "municipios": []}, {"centroide": {"lat": -33.9008795169272, "lon": -66.5025775641531}, "id": "74056", "nombre": "Juan Mart\u00edn de Pueyrred\u00f3n", "provincia": {"id": "74", "nombre": "San Luis"}, "municipios": [{"centroide": {"lat": -33.8049276377293, "lon": -66.4148690167955}, "id": "746280", "nombre": "Zanjitas", "provincia": {"id": "74", "nombre": "San Luis"}}, {"centroide": {"lat": -33.7572721991329, "lon": -66.6446207562444}, "id": "746252", "nombre": "Beazley", "provincia": {"id": "74", "nombre": "San Luis"}}, {"centroide": {"lat": -33.4521935892927, "lon": -66.6363665748128}, "id": "746245", "nombre": "Balde", "provincia": {"id": "74", "nombre": "San Luis"}}, {"centroide": {"lat": -33.210106793768, "lon": -66.2316846459176}, "id": "746266", "nombre": "P. de los Funes", "provincia": {"id": "74", "nombre": "San Luis"}}, {"centroide": {"lat": -33.2951079835674, "lon": -66.2274958520562}, "id": "740119", "nombre": "Juana Koslay", "provincia": {"id": "74", "nombre": "San Luis"}}]}, {"centroide": {"lat": -33.8905514573194, "lon": -65.56285207424}, "id": "74035", "nombre": "General Pedernera", "provincia": {"id": "74", "nombre": "San Luis"}, "municipios": []}, {"centroide": {"lat": -32.5784192360116, "lon": -65.7095887724917}, "id": "74063", "nombre": "Libertador General San Mart\u00edn", "provincia": {"id": "74", "nombre": "San Luis"}, "municipios": []}, {"centroide": {"lat": -33.1068820542746, "lon": -65.900790202998}, "id": "74021", "nombre": "Coronel Pringles", "provincia": {"id": "74", "nombre": "San Luis"}, "municipios": [{"centroide": {"lat": -33.4675887566232, "lon": -65.8176668186051}, "id": "746049", "nombre": "Fraga", "provincia": {"id": "74", "nombre": "San Luis"}}, {"centroide": {"lat": -32.8230037708213, "lon": -66.1002883078041}, "id": "746035", "nombre": "Carolina", "provincia": {"id": "74", "nombre": "San Luis"}}]}], "inicio": 0, "parametros": {"provincia": ["74"]}, "total": 9}}, {"centroide": {"lat": -30.8653679979618, "lon": -68.8894908486844}, "id": "70", "nombre": "San Juan", "departamentos": {"cantidad": 10, "departamentos": [{"centroide": {"lat": -31.453365238609, "lon": -69.8338001250755}, "id": "70021", "nombre": "Calingasta", "provincia": {"id": "70", "nombre": "San Juan"}, "municipios": []}, {"centroide": {"lat": -31.9896198487776, "lon": -67.8274038981039}, "id": "70126", "nombre": "25 de Mayo", "provincia": {"id": "70", "nombre": "San Juan"}, "municipios": []}, {"centroide": {"lat": -29.6066873518726, "lon": -69.437949892691}, "id": "70049", "nombre": "Iglesia", "provincia": {"id": "70", "nombre": "San Juan"}, "municipios": [{"centroide": {"lat": -29.6066873518889, "lon": -69.4379498926956}, "id": "700049", "nombre": "Iglesia", "provincia": {"id": "70", "nombre": "San Juan"}}]}, {"centroide": {"lat": -30.7122962694155, "lon": -67.5323035648395}, "id": "70119", "nombre": "Valle F\u00e9rtil", "provincia": {"id": "70", "nombre": "San Juan"}, "municipios": [{"centroide": {"lat": -30.7122962694162, "lon": -67.532303564839}, "id": "700119", "nombre": "Valle F\u00e9rtil", "provincia": {"id": "70", "nombre": "San Juan"}}]}, {"centroide": {"lat": -31.0904647062097, "lon": -68.8815821606005}, "id": "70112", "nombre": "Ullum", "provincia": {"id": "70", "nombre": "San Juan"}, "municipios": [{"centroide": {"lat": -31.0904647062097, "lon": -68.8815821606005}, "id": "700112", "nombre": "Ullum", "provincia": {"id": "70", "nombre": "San Juan"}}]}, {"centroide": {"lat": -31.2096344810555, "lon": -68.4519807662306}, "id": "70007", "nombre": "Albard\u00f3n", "provincia": {"id": "70", "nombre": "San Juan"}, "municipios": [{"centroide": {"lat": -31.2096344810555, "lon": -68.4519807662306}, "id": "700007", "nombre": "Albard\u00f3n", "provincia": {"id": "70", "nombre": "San Juan"}}]}, {"centroide": {"lat": -31.6381980593912, "lon": -68.9555709233027}, "id": "70133", "nombre": "Zonda", "provincia": {"id": "70", "nombre": "San Juan"}, "municipios": [{"centroide": {"lat": -31.6381980593895, "lon": -68.9555709233009}, "id": "700133", "nombre": "Zonda", "provincia": {"id": "70", "nombre": "San Juan"}}]}, {"centroide": {"lat": -31.5542325394479, "lon": -68.6416232535812}, "id": "70084", "nombre": "Rivadavia", "provincia": {"id": "70", "nombre": "San Juan"}, "municipios": [{"centroide": {"lat": -31.5542325394479, "lon": -68.6416232535812}, "id": "700084", "nombre": "Rivadavia", "provincia": {"id": "70", "nombre": "San Juan"}}]}, {"centroide": {"lat": -31.5327173670967, "lon": -68.4634116809574}, "id": "70098", "nombre": "Santa Luc\u00eda", "provincia": {"id": "70", "nombre": "San Juan"}, "municipios": [{"centroide": {"lat": -31.5327173670967, "lon": -68.4634116809574}, "id": "700098", "nombre": "Santa Luc\u00eda", "provincia": {"id": "70", "nombre": "San Juan"}}]}, {"centroide": {"lat": -31.1922192642063, "lon": -68.1319625798128}, "id": "70014", "nombre": "Angaco", "provincia": {"id": "70", "nombre": "San Juan"}, "municipios": []}], "inicio": 0, "parametros": {"provincia": ["70"]}, "total": 19}}, {"centroide": {"lat": -32.0588735436448, "lon": -59.2014475514635}, "id": "30", "nombre": "Entre R\u00edos"}, {"centroide": {"lat": -48.8154851827063, "lon": -69.9557621671973}, "id": "78", "nombre": "Santa Cruz"}, {"centroide": {"lat": -40.4057957178801, "lon": -67.229329893694}, "id": "62", "nombre": "R\u00edo Negro"}, {"centroide": {"lat": -43.7886233529878, "lon": -68.5267593943345}, "id": "26", "nombre": "Chubut"}, {"centroide": {"lat": -32.142932663607, "lon": -63.8017532741662}, "id": "14", "nombre": "C\u00f3rdoba"}, {"centroide": {"lat": -34.6298873058957, "lon": -68.5831228183798}, "id": "50", "nombre": "Mendoza"}, {"centroide": {"lat": -29.685776298315, "lon": -67.1817359694432}, "id": "46", "nombre": "La Rioja"}, {"centroide": {"lat": -27.3358332810217, "lon": -66.9476824299928}, "id": "10", "nombre": "Catamarca"}, {"centroide": {"lat": -37.1315537735949, "lon": -65.4466546606951}, "id": "42", "nombre": "La Pampa"}, {"centroide": {"lat": -27.7824116550944, "lon": -63.2523866568588}, "id": "86", "nombre": "Santiago del Estero"}, {"centroide": {"lat": -28.7743047046407, "lon": -57.8012191977913}, "id": "18", "nombre": "Corrientes"}, {"centroide": {"lat": -30.7069271588117, "lon": -60.9498369430241}, "id": "82", "nombre": "Santa Fe"}, {"centroide": {"lat": -26.9478001830786, "lon": -65.3647579441481}, "id": "90", "nombre": "Tucum\u00e1n"}, {"centroide": {"lat": -38.6417575824599, "lon": -70.1185705180601}, "id": "58", "nombre": "Neuqu\u00e9n"}, {"centroide": {"lat": -24.2991344492002, "lon": -64.8144629600627}, "id": "66", "nombre": "Salta"}, {"centroide": {"lat": -26.3864309061226, "lon": -60.7658307438603}, "id": "22", "nombre": "Chaco"}, {"centroide": {"lat": -24.894972594871, "lon": -59.9324405800872}, "id": "34", "nombre": "Formosa"}, {"centroide": {"lat": -23.3200784211351, "lon": -65.7642522180337}, "id": "38", "nombre": "Jujuy"}, {"centroide": {"lat": -34.6144934119689, "lon": -58.4458563545429}, "id": "02", "nombre": "Ciudad Aut\u00f3noma de Buenos Aires"}, {"centroide": {"lat": -36.6769415180527, "lon": -60.5588319815719}, "id": "06", "nombre": "Buenos Aires"}, {"centroide": {"lat": -82.52151781221, "lon": -50.7427486049785}, "id": "94", "nombre": "Tierra del Fuego, Ant\u00e1rtida e Islas del Atl\u00e1ntico Sur"}], "total": 24}{"cantidad": 24, "inicio": 0, "parametros": {}, "provincias": [{"centroide": {"lat": -26.8753965086829, "lon": -54.6516966230371}, "id": "54", "nombre": "Misiones", "departamentos": {"cantidad": 10, "departamentos": [{"centroide": {"lat": -27.5507848284827, "lon": -55.856845031149}, "id": "54028", "nombre": "Capital", "provincia": {"id": "54", "nombre": "Misiones"}, "municipios": []}, {"centroide": {"lat": -25.8747354912768, "lon": -54.4004185891377}, "id": "54063", "nombre": "Iguaz\u00fa", "provincia": {"id": "54", "nombre": "Misiones"}, "municipios": []}, {"centroide": {"lat": -27.4763636003081, "lon": -55.0712221116124}, "id": "54091", "nombre": "Ober\u00e1", "provincia": {"id": "54", "nombre": "Misiones"}, "municipios": []}, {"centroide": {"lat": -27.1765939564162, "lon": -55.3392901890006}, "id": "54098", "nombre": "San Ignacio", "provincia": {"id": "54", "nombre": "Misiones"}, "municipios": []}, {"centroide": {"lat": -27.3786143623767, "lon": -54.634090486794}, "id": "54119", "nombre": "25 de Mayo", "provincia": {"id": "54", "nombre": "Misiones"}, "municipios": []}, {"centroide": {"lat": -27.7771031457714, "lon": -55.1674595934642}, "id": "54105", "nombre": "San Javier", "provincia": {"id": "54", "nombre": "Misiones"}, "municipios": []}, {"centroide": {"lat": -27.8888038850636, "lon": -55.6782740306512}, "id": "54007", "nombre": "Ap\u00f3stoles", "provincia": {"id": "54", "nombre": "Misiones"}, "municipios": [{"centroide": {"lat": -27.9025022905258, "lon": -55.7217304493641}, "id": "540007", "nombre": "Ap\u00f3stoles", "provincia": {"id": "54", "nombre": "Misiones"}}, {"centroide": {"lat": -27.9918146633049, "lon": -55.6141377080929}, "id": "540028", "nombre": "Tres Capones", "provincia": {"id": "54", "nombre": "Misiones"}}]}, {"centroide": {"lat": -26.3138449973517, "lon": -54.4407363386818}, "id": "54042", "nombre": "Eldorado", "provincia": {"id": "54", "nombre": "Misiones"}, "municipios": [{"centroide": {"lat": -26.4059052828746, "lon": -54.3574983163211}, "id": "540168", "nombre": "Santiago de Liniers", "provincia": {"id": "54", "nombre": "Misiones"}}]}, {"centroide": {"lat": -26.6299609405552, "lon": -53.9629779665021}, "id": "54112", "nombre": "San Pedro", "provincia": {"id": "54", "nombre": "Misiones"}, "municipios": [{"centroide": {"lat": -26.7112090360395, "lon": -53.9412291264285}, "id": "540504", "nombre": "San Pedro", "provincia": {"id": "54", "nombre": "Misiones"}}]}, {"centroide": {"lat": -26.6579081276292, "lon": -54.5631774073677}, "id": "54084", "nombre": "Montecarlo", "provincia": {"id": "54", "nombre": "Misiones"}, "municipios": [{"centroide": {"lat": -26.639779729458, "lon": -54.5625759117353}, "id": "540343", "nombre": "Montecarlo", "provincia": {"id": "54", "nombre": "Misiones"}}]}], "inicio": 0, "parametros": {"provincia": ["54"]}, "total": 17}}, {"centroide": {"lat": -33.7577257449137, "lon": -66.0281298195836}, "id": "74", "nombre": "San Luis", "departamentos": {"cantidad": 9, "departamentos": [{"centroide": {"lat": -32.1656565638277, "lon": -66.5422509844147}, "id": "74007", "nombre": "Ayacucho", "provincia": {"id": "74", "nombre": "San Luis"}, "municipios": [{"centroide": {"lat": -32.5944806749798, "lon": -66.1262207074521}, "id": "740028", "nombre": "San Francisco", "provincia": {"id": "74", "nombre": "San Luis"}}]}, {"centroide": {"lat": -32.7356115411335, "lon": -66.7150069507327}, "id": "74014", "nombre": "Belgrano", "provincia": {"id": "74", "nombre": "San Luis"}, "municipios": []}, {"centroide": {"lat": -35.369087077487, "lon": -65.8148193795656}, "id": "74042", "nombre": "Gobernador Dupuy", "provincia": {"id": "74", "nombre": "San Luis"}, "municipios": [{"centroide": {"lat": -34.7784823489821, "lon": -65.6871985106842}, "id": "746168", "nombre": "Batavia", "provincia": {"id": "74", "nombre": "San Luis"}}]}, {"centroide": {"lat": -32.216548125306, "lon": -65.3939560584901}, "id": "74049", "nombre": "Jun\u00edn", "provincia": {"id": "74", "nombre": "San Luis"}, "municipios": [{"centroide": {"lat": -32.3529400330367, "lon": -65.0070214618305}, "id": "740105", "nombre": "Merlo", "provincia": {"id": "74", "nombre": "San Luis"}}]}, {"centroide": {"lat": -32.7269672116015, "lon": -65.1982374778981}, "id": "74028", "nombre": "Chacabuco", "provincia": {"id": "74", "nombre": "San Luis"}, "municipios": []}, {"centroide": {"lat": -33.9008795169272, "lon": -66.5025775641531}, "id": "74056", "nombre": "Juan Mart\u00edn de Pueyrred\u00f3n", "provincia": {"id": "74", "nombre": "San Luis"}, "municipios": [{"centroide": {"lat": -33.8049276377293, "lon": -66.4148690167955}, "id": "746280", "nombre": "Zanjitas", "provincia": {"id": "74", "nombre": "San Luis"}}, {"centroide": {"lat": -33.7572721991329, "lon": -66.6446207562444}, "id": "746252", "nombre": "Beazley", "provincia": {"id": "74", "nombre": "San Luis"}}, {"centroide": {"lat": -33.4521935892927, "lon": -66.6363665748128}, "id": "746245", "nombre": "Balde", "provincia": {"id": "74", "nombre": "San Luis"}}, {"centroide": {"lat": -33.210106793768, "lon": -66.2316846459176}, "id": "746266", "nombre": "P. de los Funes", "provincia": {"id": "74", "nombre": "San Luis"}}, {"centroide": {"lat": -33.2951079835674, "lon": -66.2274958520562}, "id": "740119", "nombre": "Juana Koslay", "provincia": {"id": "74", "nombre": "San Luis"}}]}, {"centroide": {"lat": -33.8905514573194, "lon": -65.56285207424}, "id": "74035", "nombre": "General Pedernera", "provincia": {"id": "74", "nombre": "San Luis"}, "municipios": []}, {"centroide": {"lat": -32.5784192360116, "lon": -65.7095887724917}, "id": "74063", "nombre": "Libertador General San Mart\u00edn", "provincia": {"id": "74", "nombre": "San Luis"}, "municipios": []}, {"centroide": {"lat": -33.1068820542746, "lon": -65.900790202998}, "id": "74021", "nombre": "Coronel Pringles", "provincia": {"id": "74", "nombre": "San Luis"}, "municipios": [{"centroide": {"lat": -33.4675887566232, "lon": -65.8176668186051}, "id": "746049", "nombre": "Fraga", "provincia": {"id": "74", "nombre": "San Luis"}}, {"centroide": {"lat": -32.8230037708213, "lon": -66.1002883078041}, "id": "746035", "nombre": "Carolina", "provincia": {"id": "74", "nombre": "San Luis"}}]}], "inicio": 0, "parametros": {"provincia": ["74"]}, "total": 9}}, {"centroide": {"lat": -30.8653679979618, "lon": -68.8894908486844}, "id": "70", "nombre": "San Juan", "departamentos": {"cantidad": 10, "departamentos": [{"centroide": {"lat": -31.453365238609, "lon": -69.8338001250755}, "id": "70021", "nombre": "Calingasta", "provincia": {"id": "70", "nombre": "San Juan"}, "municipios": []}, {"centroide": {"lat": -31.9896198487776, "lon": -67.8274038981039}, "id": "70126", "nombre": "25 de Mayo", "provincia": {"id": "70", "nombre": "San Juan"}, "municipios": []}, {"centroide": {"lat": -29.6066873518726, "lon": -69.437949892691}, "id": "70049", "nombre": "Iglesia", "provincia": {"id": "70", "nombre": "San Juan"}, "municipios": [{"centroide": {"lat": -29.6066873518889, "lon": -69.4379498926956}, "id": "700049", "nombre": "Iglesia", "provincia": {"id": "70", "nombre": "San Juan"}}]}, {"centroide": {"lat": -30.7122962694155, "lon": -67.5323035648395}, "id": "70119", "nombre": "Valle F\u00e9rtil", "provincia": {"id": "70", "nombre": "San Juan"}, "municipios": [{"centroide": {"lat": -30.7122962694162, "lon": -67.532303564839}, "id": "700119", "nombre": "Valle F\u00e9rtil", "provincia": {"id": "70", "nombre": "San Juan"}}]}, {"centroide": {"lat": -31.0904647062097, "lon": -68.8815821606005}, "id": "70112", "nombre": "Ullum", "provincia": {"id": "70", "nombre": "San Juan"}, "municipios": [{"centroide": {"lat": -31.0904647062097, "lon": -68.8815821606005}, "id": "700112", "nombre": "Ullum", "provincia": {"id": "70", "nombre": "San Juan"}}]}, {"centroide": {"lat": -31.2096344810555, "lon": -68.4519807662306}, "id": "70007", "nombre": "Albard\u00f3n", "provincia": {"id": "70", "nombre": "San Juan"}, "municipios": [{"centroide": {"lat": -31.2096344810555, "lon": -68.4519807662306}, "id": "700007", "nombre": "Albard\u00f3n", "provincia": {"id": "70", "nombre": "San Juan"}}]}, {"centroide": {"lat": -31.6381980593912, "lon": -68.9555709233027}, "id": "70133", "nombre": "Zonda", "provincia": {"id": "70", "nombre": "San Juan"}, "municipios": [{"centroide": {"lat": -31.6381980593895, "lon": -68.9555709233009}, "id": "700133", "nombre": "Zonda", "provincia": {"id": "70", "nombre": "San Juan"}}]}, {"centroide": {"lat": -31.5542325394479, "lon": -68.6416232535812}, "id": "70084", "nombre": "Rivadavia", "provincia": {"id": "70", "nombre": "San Juan"}, "municipios": [{"centroide": {"lat": -31.5542325394479, "lon": -68.6416232535812}, "id": "700084", "nombre": "Rivadavia", "provincia": {"id": "70", "nombre": "San Juan"}}]}, {"centroide": {"lat": -31.5327173670967, "lon": -68.4634116809574}, "id": "70098", "nombre": "Santa Luc\u00eda", "provincia": {"id": "70", "nombre": "San Juan"}, "municipios": [{"centroide": {"lat": -31.5327173670967, "lon": -68.4634116809574}, "id": "700098", "nombre": "Santa Luc\u00eda", "provincia": {"id": "70", "nombre": "San Juan"}}]}, {"centroide": {"lat": -31.1922192642063, "lon": -68.1319625798128}, "id": "70014", "nombre": "Angaco", "provincia": {"id": "70", "nombre": "San Juan"}, "municipios": []}], "inicio": 0, "parametros": {"provincia": ["70"]}, "total": 19}}, {"centroide": {"lat": -32.0588735436448, "lon": -59.2014475514635}, "id": "30", "nombre": "Entre R\u00edos", "departamentos": {"cantidad": 10, "departamentos": [{"centroide": {"lat": -31.6477388963494, "lon": -59.0594708104081}, "id": "30113", "nombre": "Villaguay", "provincia": {"id": "30", "nombre": "Entre R\u00edos"}, "municipios": []}, {"centroide": {"lat": -31.5768835387468, "lon": -58.4863728567996}, "id": "30088", "nombre": "San Salvador", "provincia": {"id": "30", "nombre": "Entre R\u00edos"}, "municipios": []}, {"centroide": {"lat": -32.2187123475252, "lon": -59.7697019155424}, "id": "30077", "nombre": "Nogoy\u00e1", "provincia": {"id": "30", "nombre": "Entre R\u00edos"}, "municipios": []}, {"centroide": {"lat": -32.3174117217417, "lon": -59.2672864855269}, "id": "30091", "nombre": "Tala", "provincia": {"id": "30", "nombre": "Entre R\u00edos"}, "municipios": []}, {"centroide": {"lat": -30.8974563498339, "lon": -59.5004488104579}, "id": "30070", "nombre": "La Paz", "provincia": {"id": "30", "nombre": "Entre R\u00edos"}, "municipios": []}, {"centroide": {"lat": -31.2902983723403, "lon": -58.237869689912}, "id": "30015", "nombre": "Concordia", "provincia": {"id": "30", "nombre": "Entre R\u00edos"}, "municipios": []}, {"centroide": {"lat": -30.9924267797136, "lon": -58.8918600477837}, "id": "30035", "nombre": "Federal", "provincia": {"id": "30", "nombre": "Entre R\u00edos"}, "municipios": []}, {"centroide": {"lat": -33.0223492433906, "lon": -58.7857904865089}, "id": "30056", "nombre": "Gualeguaych\u00fa", "provincia": {"id": "30", "nombre": "Entre R\u00edos"}, "municipios": []}, {"centroide": {"lat": -33.6241288152628, "lon": -58.9351580556436}, "id": "30063", "nombre": "Islas del Ibicuy", "provincia": {"id": "30", "nombre": "Entre R\u00edos"}, "municipios": []}, {"centroide": {"lat": -32.7839424597327, "lon": -60.2180700309804}, "id": "30105", "nombre": "Victoria", "provincia": {"id": "30", "nombre": "Entre R\u00edos"}, "municipios": []}], "inicio": 0, "parametros": {"provincia": ["30"]}, "total": 17}}, {"centroide": {"lat": -48.8154851827063, "lon": -69.9557621671973}, "id": "78", "nombre": "Santa Cruz"}, {"centroide": {"lat": -40.4057957178801, "lon": -67.229329893694}, "id": "62", "nombre": "R\u00edo Negro"}, {"centroide": {"lat": -43.7886233529878, "lon": -68.5267593943345}, "id": "26", "nombre": "Chubut"}, {"centroide": {"lat": -32.142932663607, "lon": -63.8017532741662}, "id": "14", "nombre": "C\u00f3rdoba"}, {"centroide": {"lat": -34.6298873058957, "lon": -68.5831228183798}, "id": "50", "nombre": "Mendoza"}, {"centroide": {"lat": -29.685776298315, "lon": -67.1817359694432}, "id": "46", "nombre": "La Rioja"}, {"centroide": {"lat": -27.3358332810217, "lon": -66.9476824299928}, "id": "10", "nombre": "Catamarca"}, {"centroide": {"lat": -37.1315537735949, "lon": -65.4466546606951}, "id": "42", "nombre": "La Pampa"}, {"centroide": {"lat": -27.7824116550944, "lon": -63.2523866568588}, "id": "86", "nombre": "Santiago del Estero"}, {"centroide": {"lat": -28.7743047046407, "lon": -57.8012191977913}, "id": "18", "nombre": "Corrientes"}, {"centroide": {"lat": -30.7069271588117, "lon": -60.9498369430241}, "id": "82", "nombre": "Santa Fe"}, {"centroide": {"lat": -26.9478001830786, "lon": -65.3647579441481}, "id": "90", "nombre": "Tucum\u00e1n"}, {"centroide": {"lat": -38.6417575824599, "lon": -70.1185705180601}, "id": "58", "nombre": "Neuqu\u00e9n"}, {"centroide": {"lat": -24.2991344492002, "lon": -64.8144629600627}, "id": "66", "nombre": "Salta"}, {"centroide": {"lat": -26.3864309061226, "lon": -60.7658307438603}, "id": "22", "nombre": "Chaco"}, {"centroide": {"lat": -24.894972594871, "lon": -59.9324405800872}, "id": "34", "nombre": "Formosa"}, {"centroide": {"lat": -23.3200784211351, "lon": -65.7642522180337}, "id": "38", "nombre": "Jujuy"}, {"centroide": {"lat": -34.6144934119689, "lon": -58.4458563545429}, "id": "02", "nombre": "Ciudad Aut\u00f3noma de Buenos Aires"}, {"centroide": {"lat": -36.6769415180527, "lon": -60.5588319815719}, "id": "06", "nombre": "Buenos Aires"}, {"centroide": {"lat": -82.52151781221, "lon": -50.7427486049785}, "id": "94", "nombre": "Tierra del Fuego, Ant\u00e1rtida e Islas del Atl\u00e1ntico Sur"}], "total": 24}{"cantidad": 24, "inicio": 0, "parametros": {}, "provincias": [{"centroide": {"lat": -26.8753965086829, "lon": -54.6516966230371}, "id": "54", "nombre": "Misiones", "departamentos": {"cantidad": 10, "departamentos": [{"centroide": {"lat": -27.5507848284827, "lon": -55.856845031149}, "id": "54028", "nombre": "Capital", "provincia": {"id": "54", "nombre": "Misiones"}, "municipios": []}, {"centroide": {"lat": -25.8747354912768, "lon": -54.4004185891377}, "id": "54063", "nombre": "Iguaz\u00fa", "provincia": {"id": "54", "nombre": "Misiones"}, "municipios": []}, {"centroide": {"lat": -27.4763636003081, "lon": -55.0712221116124}, "id": "54091", "nombre": "Ober\u00e1", "provincia": {"id": "54", "nombre": "Misiones"}, "municipios": []}, {"centroide": {"lat": -27.1765939564162, "lon": -55.3392901890006}, "id": "54098", "nombre": "San Ignacio", "provincia": {"id": "54", "nombre": "Misiones"}, "municipios": []}, {"centroide": {"lat": -27.3786143623767, "lon": -54.634090486794}, "id": "54119", "nombre": "25 de Mayo", "provincia": {"id": "54", "nombre": "Misiones"}, "municipios": []}, {"centroide": {"lat": -27.7771031457714, "lon": -55.1674595934642}, "id": "54105", "nombre": "San Javier", "provincia": {"id": "54", "nombre": "Misiones"}, "municipios": []}, {"centroide": {"lat": -27.8888038850636, "lon": -55.6782740306512}, "id": "54007", "nombre": "Ap\u00f3stoles", "provincia": {"id": "54", "nombre": "Misiones"}, "municipios": [{"centroide": {"lat": -27.9025022905258, "lon": -55.7217304493641}, "id": "540007", "nombre": "Ap\u00f3stoles", "provincia": {"id": "54", "nombre": "Misiones"}}, {"centroide": {"lat": -27.9918146633049, "lon": -55.6141377080929}, "id": "540028", "nombre": "Tres Capones", "provincia": {"id": "54", "nombre": "Misiones"}}]}, {"centroide": {"lat": -26.3138449973517, "lon": -54.4407363386818}, "id": "54042", "nombre": "Eldorado", "provincia": {"id": "54", "nombre": "Misiones"}, "municipios": [{"centroide": {"lat": -26.4059052828746, "lon": -54.3574983163211}, "id": "540168", "nombre": "Santiago de Liniers", "provincia": {"id": "54", "nombre": "Misiones"}}]}, {"centroide": {"lat": -26.6299609405552, "lon": -53.9629779665021}, "id": "54112", "nombre": "San Pedro", "provincia": {"id": "54", "nombre": "Misiones"}, "municipios": [{"centroide": {"lat": -26.7112090360395, "lon": -53.9412291264285}, "id": "540504", "nombre": "San Pedro", "provincia": {"id": "54", "nombre": "Misiones"}}]}, {"centroide": {"lat": -26.6579081276292, "lon": -54.5631774073677}, "id": "54084", "nombre": "Montecarlo", "provincia": {"id": "54", "nombre": "Misiones"}, "municipios": [{"centroide": {"lat": -26.639779729458, "lon": -54.5625759117353}, "id": "540343", "nombre": "Montecarlo", "provincia": {"id": "54", "nombre": "Misiones"}}]}], "inicio": 0, "parametros": {"provincia": ["54"]}, "total": 17}}, {"centroide": {"lat": -33.7577257449137, "lon": -66.0281298195836}, "id": "74", "nombre": "San Luis", "departamentos": {"cantidad": 9, "departamentos": [{"centroide": {"lat": -32.1656565638277, "lon": -66.5422509844147}, "id": "74007", "nombre": "Ayacucho", "provincia": {"id": "74", "nombre": "San Luis"}, "municipios": [{"centroide": {"lat": -32.5944806749798, "lon": -66.1262207074521}, "id": "740028", "nombre": "San Francisco", "provincia": {"id": "74", "nombre": "San Luis"}}]}, {"centroide": {"lat": -32.7356115411335, "lon": -66.7150069507327}, "id": "74014", "nombre": "Belgrano", "provincia": {"id": "74", "nombre": "San Luis"}, "municipios": []}, {"centroide": {"lat": -35.369087077487, "lon": -65.8148193795656}, "id": "74042", "nombre": "Gobernador Dupuy", "provincia": {"id": "74", "nombre": "San Luis"}, "municipios": [{"centroide": {"lat": -34.7784823489821, "lon": -65.6871985106842}, "id": "746168", "nombre": "Batavia", "provincia": {"id": "74", "nombre": "San Luis"}}]}, {"centroide": {"lat": -32.216548125306, "lon": -65.3939560584901}, "id": "74049", "nombre": "Jun\u00edn", "provincia": {"id": "74", "nombre": "San Luis"}, "municipios": [{"centroide": {"lat": -32.3529400330367, "lon": -65.0070214618305}, "id": "740105", "nombre": "Merlo", "provincia": {"id": "74", "nombre": "San Luis"}}]}, {"centroide": {"lat": -32.7269672116015, "lon": -65.1982374778981}, "id": "74028", "nombre": "Chacabuco", "provincia": {"id": "74", "nombre": "San Luis"}, "municipios": []}, {"centroide": {"lat": -33.9008795169272, "lon": -66.5025775641531}, "id": "74056", "nombre": "Juan Mart\u00edn de Pueyrred\u00f3n", "provincia": {"id": "74", "nombre": "San Luis"}, "municipios": [{"centroide": {"lat": -33.8049276377293, "lon": -66.4148690167955}, "id": "746280", "nombre": "Zanjitas", "provincia": {"id": "74", "nombre": "San Luis"}}, {"centroide": {"lat": -33.7572721991329, "lon": -66.6446207562444}, "id": "746252", "nombre": "Beazley", "provincia": {"id": "74", "nombre": "San Luis"}}, {"centroide": {"lat": -33.4521935892927, "lon": -66.6363665748128}, "id": "746245", "nombre": "Balde", "provincia": {"id": "74", "nombre": "San Luis"}}, {"centroide": {"lat": -33.210106793768, "lon": -66.2316846459176}, "id": "746266", "nombre": "P. de los Funes", "provincia": {"id": "74", "nombre": "San Luis"}}, {"centroide": {"lat": -33.2951079835674, "lon": -66.2274958520562}, "id": "740119", "nombre": "Juana Koslay", "provincia": {"id": "74", "nombre": "San Luis"}}]}, {"centroide": {"lat": -33.8905514573194, "lon": -65.56285207424}, "id": "74035", "nombre": "General Pedernera", "provincia": {"id": "74", "nombre": "San Luis"}, "municipios": []}, {"centroide": {"lat": -32.5784192360116, "lon": -65.7095887724917}, "id": "74063", "nombre": "Libertador General San Mart\u00edn", "provincia": {"id": "74", "nombre": "San Luis"}, "municipios": []}, {"centroide": {"lat": -33.1068820542746, "lon": -65.900790202998}, "id": "74021", "nombre": "Coronel Pringles", "provincia": {"id": "74", "nombre": "San Luis"}, "municipios": [{"centroide": {"lat": -33.4675887566232, "lon": -65.8176668186051}, "id": "746049", "nombre": "Fraga", "provincia": {"id": "74", "nombre": "San Luis"}}, {"centroide": {"lat": -32.8230037708213, "lon": -66.1002883078041}, "id": "746035", "nombre": "Carolina", "provincia": {"id": "74", "nombre": "San Luis"}}]}], "inicio": 0, "parametros": {"provincia": ["74"]}, "total": 9}}, {"centroide": {"lat": -30.8653679979618, "lon": -68.8894908486844}, "id": "70", "nombre": "San Juan", "departamentos": {"cantidad": 10, "departamentos": [{"centroide": {"lat": -31.453365238609, "lon": -69.8338001250755}, "id": "70021", "nombre": "Calingasta", "provincia": {"id": "70", "nombre": "San Juan"}, "municipios": []}, {"centroide": {"lat": -31.9896198487776, "lon": -67.8274038981039}, "id": "70126", "nombre": "25 de Mayo", "provincia": {"id": "70", "nombre": "San Juan"}, "municipios": []}, {"centroide": {"lat": -29.6066873518726, "lon": -69.437949892691}, "id": "70049", "nombre": "Iglesia", "provincia": {"id": "70", "nombre": "San Juan"}, "municipios": [{"centroide": {"lat": -29.6066873518889, "lon": -69.4379498926956}, "id": "700049", "nombre": "Iglesia", "provincia": {"id": "70", "nombre": "San Juan"}}]}, {"centroide": {"lat": -30.7122962694155, "lon": -67.5323035648395}, "id": "70119", "nombre": "Valle F\u00e9rtil", "provincia": {"id": "70", "nombre": "San Juan"}, "municipios": [{"centroide": {"lat": -30.7122962694162, "lon": -67.532303564839}, "id": "700119", "nombre": "Valle F\u00e9rtil", "provincia": {"id": "70", "nombre": "San Juan"}}]}, {"centroide": {"lat": -31.0904647062097, "lon": -68.8815821606005}, "id": "70112", "nombre": "Ullum", "provincia": {"id": "70", "nombre": "San Juan"}, "municipios": [{"centroide": {"lat": -31.0904647062097, "lon": -68.8815821606005}, "id": "700112", "nombre": "Ullum", "provincia": {"id": "70", "nombre": "San Juan"}}]}, {"centroide": {"lat": -31.2096344810555, "lon": -68.4519807662306}, "id": "70007", "nombre": "Albard\u00f3n", "provincia": {"id": "70", "nombre": "San Juan"}, "municipios": [{"centroide": {"lat": -31.2096344810555, "lon": -68.4519807662306}, "id": "700007", "nombre": "Albard\u00f3n", "provincia": {"id": "70", "nombre": "San Juan"}}]}, {"centroide": {"lat": -31.6381980593912, "lon": -68.9555709233027}, "id": "70133", "nombre": "Zonda", "provincia": {"id": "70", "nombre": "San Juan"}, "municipios": [{"centroide": {"lat": -31.6381980593895, "lon": -68.9555709233009}, "id": "700133", "nombre": "Zonda", "provincia": {"id": "70", "nombre": "San Juan"}}]}, {"centroide": {"lat": -31.5542325394479, "lon": -68.6416232535812}, "id": "70084", "nombre": "Rivadavia", "provincia": {"id": "70", "nombre": "San Juan"}, "municipios": [{"centroide": {"lat": -31.5542325394479, "lon": -68.6416232535812}, "id": "700084", "nombre": "Rivadavia", "provincia": {"id": "70", "nombre": "San Juan"}}]}, {"centroide": {"lat": -31.5327173670967, "lon": -68.4634116809574}, "id": "70098", "nombre": "Santa Luc\u00eda", "provincia": {"id": "70", "nombre": "San Juan"}, "municipios": [{"centroide": {"lat": -31.5327173670967, "lon": -68.4634116809574}, "id": "700098", "nombre": "Santa Luc\u00eda", "provincia": {"id": "70", "nombre": "San Juan"}}]}, {"centroide": {"lat": -31.1922192642063, "lon": -68.1319625798128}, "id": "70014", "nombre": "Angaco", "provincia": {"id": "70", "nombre": "San Juan"}, "municipios": []}], "inicio": 0, "parametros": {"provincia": ["70"]}, "total": 19}}, {"centroide": {"lat": -32.0588735436448, "lon": -59.2014475514635}, "id": "30", "nombre": "Entre R\u00edos", "departamentos": {"cantidad": 10, "departamentos": [{"centroide": {"lat": -31.6477388963494, "lon": -59.0594708104081}, "id": "30113", "nombre": "Villaguay", "provincia": {"id": "30", "nombre": "Entre R\u00edos"}, "municipios": []}, {"centroide": {"lat": -31.5768835387468, "lon": -58.4863728567996}, "id": "30088", "nombre": "San Salvador", "provincia": {"id": "30", "nombre": "Entre R\u00edos"}, "municipios": []}, {"centroide": {"lat": -32.2187123475252, "lon": -59.7697019155424}, "id": "30077", "nombre": "Nogoy\u00e1", "provincia": {"id": "30", "nombre": "Entre R\u00edos"}, "municipios": []}, {"centroide": {"lat": -32.3174117217417, "lon": -59.2672864855269}, "id": "30091", "nombre": "Tala", "provincia": {"id": "30", "nombre": "Entre R\u00edos"}, "municipios": []}, {"centroide": {"lat": -30.8974563498339, "lon": -59.5004488104579}, "id": "30070", "nombre": "La Paz", "provincia": {"id": "30", "nombre": "Entre R\u00edos"}, "municipios": []}, {"centroide": {"lat": -31.2902983723403, "lon": -58.237869689912}, "id": "30015", "nombre": "Concordia", "provincia": {"id": "30", "nombre": "Entre R\u00edos"}, "municipios": []}, {"centroide": {"lat": -30.9924267797136, "lon": -58.8918600477837}, "id": "30035", "nombre": "Federal", "provincia": {"id": "30", "nombre": "Entre R\u00edos"}, "municipios": []}, {"centroide": {"lat": -33.0223492433906, "lon": -58.7857904865089}, "id": "30056", "nombre": "Gualeguaych\u00fa", "provincia": {"id": "30", "nombre": "Entre R\u00edos"}, "municipios": []}, {"centroide": {"lat": -33.6241288152628, "lon": -58.9351580556436}, "id": "30063", "nombre": "Islas del Ibicuy", "provincia": {"id": "30", "nombre": "Entre R\u00edos"}, "municipios": []}, {"centroide": {"lat": -32.7839424597327, "lon": -60.2180700309804}, "id": "30105", "nombre": "Victoria", "provincia": {"id": "30", "nombre": "Entre R\u00edos"}, "municipios": []}], "inicio": 0, "parametros": {"provincia": ["30"]}, "total": 17}}, {"centroide": {"lat": -48.8154851827063, "lon": -69.9557621671973}, "id": "78", "nombre": "Santa Cruz", "departamentos": {"cantidad": 7, "departamentos": [{"centroide": {"lat": -48.8383418225325, "lon": -68.4681621286703}, "id": "78042", "nombre": "Magallanes", "provincia": {"id": "78", "nombre": "Santa Cruz"}, "municipios": []}, {"centroide": {"lat": -49.9474837007267, "lon": -69.4469507225498}, "id": "78007", "nombre": "Corpen Aike", "provincia": {"id": "78", "nombre": "Santa Cruz"}, "municipios": []}, {"centroide": {"lat": -46.8341030724218, "lon": -70.6314100141799}, "id": "78035", "nombre": "Lago Buenos Aires", "provincia": {"id": "78", "nombre": "Santa Cruz"}, "municipios": []}, {"centroide": {"lat": -47.3305185775707, "lon": -68.0290787062148}, "id": "78014", "nombre": "Deseado", "provincia": {"id": "78", "nombre": "Santa Cruz"}, "municipios": []}, {"centroide": {"lat": -48.2873290186499, "lon": -71.1138374982594}, "id": "78049", "nombre": "R\u00edo Chico", "provincia": {"id": "78", "nombre": "Santa Cruz"}, "municipios": []}, {"centroide": {"lat": -49.8364881431632, "lon": -72.0654713338211}, "id": "78028", "nombre": "Lago Argentino", "provincia": {"id": "78", "nombre": "Santa Cruz"}, "municipios": []}, {"centroide": {"lat": -51.4134125040273, "lon": -70.5618155470895}, "id": "78021", "nombre": "G\u00fcer Aike", "provincia": {"id": "78", "nombre": "Santa Cruz"}, "municipios": []}], "inicio": 0, "parametros": {"provincia": ["78"]}, "total": 7}}, {"centroide": {"lat": -40.4057957178801, "lon": -67.229329893694}, "id": "62", "nombre": "R\u00edo Negro"}, {"centroide": {"lat": -43.7886233529878, "lon": -68.5267593943345}, "id": "26", "nombre": "Chubut"}, {"centroide": {"lat": -32.142932663607, "lon": -63.8017532741662}, "id": "14", "nombre": "C\u00f3rdoba"}, {"centroide": {"lat": -34.6298873058957, "lon": -68.5831228183798}, "id": "50", "nombre": "Mendoza"}, {"centroide": {"lat": -29.685776298315, "lon": -67.1817359694432}, "id": "46", "nombre": "La Rioja"}, {"centroide": {"lat": -27.3358332810217, "lon": -66.9476824299928}, "id": "10", "nombre": "Catamarca"}, {"centroide": {"lat": -37.1315537735949, "lon": -65.4466546606951}, "id": "42", "nombre": "La Pampa"}, {"centroide": {"lat": -27.7824116550944, "lon": -63.2523866568588}, "id": "86", "nombre": "Santiago del Estero"}, {"centroide": {"lat": -28.7743047046407, "lon": -57.8012191977913}, "id": "18", "nombre": "Corrientes"}, {"centroide": {"lat": -30.7069271588117, "lon": -60.9498369430241}, "id": "82", "nombre": "Santa Fe"}, {"centroide": {"lat": -26.9478001830786, "lon": -65.3647579441481}, "id": "90", "nombre": "Tucum\u00e1n"}, {"centroide": {"lat": -38.6417575824599, "lon": -70.1185705180601}, "id": "58", "nombre": "Neuqu\u00e9n"}, {"centroide": {"lat": -24.2991344492002, "lon": -64.8144629600627}, "id": "66", "nombre": "Salta"}, {"centroide": {"lat": -26.3864309061226, "lon": -60.7658307438603}, "id": "22", "nombre": "Chaco"}, {"centroide": {"lat": -24.894972594871, "lon": -59.9324405800872}, "id": "34", "nombre": "Formosa"}, {"centroide": {"lat": -23.3200784211351, "lon": -65.7642522180337}, "id": "38", "nombre": "Jujuy"}, {"centroide": {"lat": -34.6144934119689, "lon": -58.4458563545429}, "id": "02", "nombre": "Ciudad Aut\u00f3noma de Buenos Aires"}, {"centroide": {"lat": -36.6769415180527, "lon": -60.5588319815719}, "id": "06", "nombre": "Buenos Aires"}, {"centroide": {"lat": -82.52151781221, "lon": -50.7427486049785}, "id": "94", "nombre": "Tierra del Fuego, Ant\u00e1rtida e Islas del Atl\u00e1ntico Sur"}], "total": 24}{"cantidad": 24, "inicio": 0, "parametros": {}, "provincias": [{"centroide": {"lat": -26.8753965086829, "lon": -54.6516966230371}, "id": "54", "nombre": "Misiones", "departamentos": {"cantidad": 10, "departamentos": [{"centroide": {"lat": -27.5507848284827, "lon": -55.856845031149}, "id": "54028", "nombre": "Capital", "provincia": {"id": "54", "nombre": "Misiones"}, "municipios": []}, {"centroide": {"lat": -25.8747354912768, "lon": -54.4004185891377}, "id": "54063", "nombre": "Iguaz\u00fa", "provincia": {"id": "54", "nombre": "Misiones"}, "municipios": []}, {"centroide": {"lat": -27.4763636003081, "lon": -55.0712221116124}, "id": "54091", "nombre": "Ober\u00e1", "provincia": {"id": "54", "nombre": "Misiones"}, "municipios": []}, {"centroide": {"lat": -27.1765939564162, "lon": -55.3392901890006}, "id": "54098", "nombre": "San Ignacio", "provincia": {"id": "54", "nombre": "Misiones"}, "municipios": []}, {"centroide": {"lat": -27.3786143623767, "lon": -54.634090486794}, "id": "54119", "nombre": "25 de Mayo", "provincia": {"id": "54", "nombre": "Misiones"}, "municipios": []}, {"centroide": {"lat": -27.7771031457714, "lon": -55.1674595934642}, "id": "54105", "nombre": "San Javier", "provincia": {"id": "54", "nombre": "Misiones"}, "municipios": []}, {"centroide": {"lat": -27.8888038850636, "lon": -55.6782740306512}, "id": "54007", "nombre": "Ap\u00f3stoles", "provincia": {"id": "54", "nombre": "Misiones"}, "municipios": [{"centroide": {"lat": -27.9025022905258, "lon": -55.7217304493641}, "id": "540007", "nombre": "Ap\u00f3stoles", "provincia": {"id": "54", "nombre": "Misiones"}}, {"centroide": {"lat": -27.9918146633049, "lon": -55.6141377080929}, "id": "540028", "nombre": "Tres Capones", "provincia": {"id": "54", "nombre": "Misiones"}}]}, {"centroide": {"lat": -26.3138449973517, "lon": -54.4407363386818}, "id": "54042", "nombre": "Eldorado", "provincia": {"id": "54", "nombre": "Misiones"}, "municipios": [{"centroide": {"lat": -26.4059052828746, "lon": -54.3574983163211}, "id": "540168", "nombre": "Santiago de Liniers", "provincia": {"id": "54", "nombre": "Misiones"}}]}, {"centroide": {"lat": -26.6299609405552, "lon": -53.9629779665021}, "id": "54112", "nombre": "San Pedro", "provincia": {"id": "54", "nombre": "Misiones"}, "municipios": [{"centroide": {"lat": -26.7112090360395, "lon": -53.9412291264285}, "id": "540504", "nombre": "San Pedro", "provincia": {"id": "54", "nombre": "Misiones"}}]}, {"centroide": {"lat": -26.6579081276292, "lon": -54.5631774073677}, "id": "54084", "nombre": "Montecarlo", "provincia": {"id": "54", "nombre": "Misiones"}, "municipios": [{"centroide": {"lat": -26.639779729458, "lon": -54.5625759117353}, "id": "540343", "nombre": "Montecarlo", "provincia": {"id": "54", "nombre": "Misiones"}}]}], "inicio": 0, "parametros": {"provincia": ["54"]}, "total": 17}}, {"centroide": {"lat": -33.7577257449137, "lon": -66.0281298195836}, "id": "74", "nombre": "San Luis", "departamentos": {"cantidad": 9, "departamentos": [{"centroide": {"lat": -32.1656565638277, "lon": -66.5422509844147}, "id": "74007", "nombre": "Ayacucho", "provincia": {"id": "74", "nombre": "San Luis"}, "municipios": [{"centroide": {"lat": -32.5944806749798, "lon": -66.1262207074521}, "id": "740028", "nombre": "San Francisco", "provincia": {"id": "74", "nombre": "San Luis"}}]}, {"centroide": {"lat": -32.7356115411335, "lon": -66.7150069507327}, "id": "74014", "nombre": "Belgrano", "provincia": {"id": "74", "nombre": "San Luis"}, "municipios": []}, {"centroide": {"lat": -35.369087077487, "lon": -65.8148193795656}, "id": "74042", "nombre": "Gobernador Dupuy", "provincia": {"id": "74", "nombre": "San Luis"}, "municipios": [{"centroide": {"lat": -34.7784823489821, "lon": -65.6871985106842}, "id": "746168", "nombre": "Batavia", "provincia": {"id": "74", "nombre": "San Luis"}}]}, {"centroide": {"lat": -32.216548125306, "lon": -65.3939560584901}, "id": "74049", "nombre": "Jun\u00edn", "provincia": {"id": "74", "nombre": "San Luis"}, "municipios": [{"centroide": {"lat": -32.3529400330367, "lon": -65.0070214618305}, "id": "740105", "nombre": "Merlo", "provincia": {"id": "74", "nombre": "San Luis"}}]}, {"centroide": {"lat": -32.7269672116015, "lon": -65.1982374778981}, "id": "74028", "nombre": "Chacabuco", "provincia": {"id": "74", "nombre": "San Luis"}, "municipios": []}, {"centroide": {"lat": -33.9008795169272, "lon": -66.5025775641531}, "id": "74056", "nombre": "Juan Mart\u00edn de Pueyrred\u00f3n", "provincia": {"id": "74", "nombre": "San Luis"}, "municipios": [{"centroide": {"lat": -33.8049276377293, "lon": -66.4148690167955}, "id": "746280", "nombre": "Zanjitas", "provincia": {"id": "74", "nombre": "San Luis"}}, {"centroide": {"lat": -33.7572721991329, "lon": -66.6446207562444}, "id": "746252", "nombre": "Beazley", "provincia": {"id": "74", "nombre": "San Luis"}}, {"centroide": {"lat": -33.4521935892927, "lon": -66.6363665748128}, "id": "746245", "nombre": "Balde", "provincia": {"id": "74", "nombre": "San Luis"}}, {"centroide": {"lat": -33.210106793768, "lon": -66.2316846459176}, "id": "746266", "nombre": "P. de los Funes", "provincia": {"id": "74", "nombre": "San Luis"}}, {"centroide": {"lat": -33.2951079835674, "lon": -66.2274958520562}, "id": "740119", "nombre": "Juana Koslay", "provincia": {"id": "74", "nombre": "San Luis"}}]}, {"centroide": {"lat": -33.8905514573194, "lon": -65.56285207424}, "id": "74035", "nombre": "General Pedernera", "provincia": {"id": "74", "nombre": "San Luis"}, "municipios": []}, {"centroide": {"lat": -32.5784192360116, "lon": -65.7095887724917}, "id": "74063", "nombre": "Libertador General San Mart\u00edn", "provincia": {"id": "74", "nombre": "San Luis"}, "municipios": []}, {"centroide": {"lat": -33.1068820542746, "lon": -65.900790202998}, "id": "74021", "nombre": "Coronel Pringles", "provincia": {"id": "74", "nombre": "San Luis"}, "municipios": [{"centroide": {"lat": -33.4675887566232, "lon": -65.8176668186051}, "id": "746049", "nombre": "Fraga", "provincia": {"id": "74", "nombre": "San Luis"}}, {"centroide": {"lat": -32.8230037708213, "lon": -66.1002883078041}, "id": "746035", "nombre": "Carolina", "provincia": {"id": "74", "nombre": "San Luis"}}]}], "inicio": 0, "parametros": {"provincia": ["74"]}, "total": 9}}, {"centroide": {"lat": -30.8653679979618, "lon": -68.8894908486844}, "id": "70", "nombre": "San Juan", "departamentos": {"cantidad": 10, "departamentos": [{"centroide": {"lat": -31.453365238609, "lon": -69.8338001250755}, "id": "70021", "nombre": "Calingasta", "provincia": {"id": "70", "nombre": "San Juan"}, "municipios": []}, {"centroide": {"lat": -31.9896198487776, "lon": -67.8274038981039}, "id": "70126", "nombre": "25 de Mayo", "provincia": {"id": "70", "nombre": "San Juan"}, "municipios": []}, {"centroide": {"lat": -29.6066873518726, "lon": -69.437949892691}, "id": "70049", "nombre": "Iglesia", "provincia": {"id": "70", "nombre": "San Juan"}, "municipios": [{"centroide": {"lat": -29.6066873518889, "lon": -69.4379498926956}, "id": "700049", "nombre": "Iglesia", "provincia": {"id": "70", "nombre": "San Juan"}}]}, {"centroide": {"lat": -30.7122962694155, "lon": -67.5323035648395}, "id": "70119", "nombre": "Valle F\u00e9rtil", "provincia": {"id": "70", "nombre": "San Juan"}, "municipios": [{"centroide": {"lat": -30.7122962694162, "lon": -67.532303564839}, "id": "700119", "nombre": "Valle F\u00e9rtil", "provincia": {"id": "70", "nombre": "San Juan"}}]}, {"centroide": {"lat": -31.0904647062097, "lon": -68.8815821606005}, "id": "70112", "nombre": "Ullum", "provincia": {"id": "70", "nombre": "San Juan"}, "municipios": [{"centroide": {"lat": -31.0904647062097, "lon": -68.8815821606005}, "id": "700112", "nombre": "Ullum", "provincia": {"id": "70", "nombre": "San Juan"}}]}, {"centroide": {"lat": -31.2096344810555, "lon": -68.4519807662306}, "id": "70007", "nombre": "Albard\u00f3n", "provincia": {"id": "70", "nombre": "San Juan"}, "municipios": [{"centroide": {"lat": -31.2096344810555, "lon": -68.4519807662306}, "id": "700007", "nombre": "Albard\u00f3n", "provincia": {"id": "70", "nombre": "San Juan"}}]}, {"centroide": {"lat": -31.6381980593912, "lon": -68.9555709233027}, "id": "70133", "nombre": "Zonda", "provincia": {"id": "70", "nombre": "San Juan"}, "municipios": [{"centroide": {"lat": -31.6381980593895, "lon": -68.9555709233009}, "id": "700133", "nombre": "Zonda", "provincia": {"id": "70", "nombre": "San Juan"}}]}, {"centroide": {"lat": -31.5542325394479, "lon": -68.6416232535812}, "id": "70084", "nombre": "Rivadavia", "provincia": {"id": "70", "nombre": "San Juan"}, "municipios": [{"centroide": {"lat": -31.5542325394479, "lon": -68.6416232535812}, "id": "700084", "nombre": "Rivadavia", "provincia": {"id": "70", "nombre": "San Juan"}}]}, {"centroide": {"lat": -31.5327173670967, "lon": -68.4634116809574}, "id": "70098", "nombre": "Santa Luc\u00eda", "provincia": {"id": "70", "nombre": "San Juan"}, "municipios": [{"centroide": {"lat": -31.5327173670967, "lon": -68.4634116809574}, "id": "700098", "nombre": "Santa Luc\u00eda", "provincia": {"id": "70", "nombre": "San Juan"}}]}, {"centroide": {"lat": -31.1922192642063, "lon": -68.1319625798128}, "id": "70014", "nombre": "Angaco", "provincia": {"id": "70", "nombre": "San Juan"}, "municipios": []}], "inicio": 0, "parametros": {"provincia": ["70"]}, "total": 19}}, {"centroide": {"lat": -32.0588735436448, "lon": -59.2014475514635}, "id": "30", "nombre": "Entre R\u00edos", "departamentos": {"cantidad": 10, "departamentos": [{"centroide": {"lat": -31.6477388963494, "lon": -59.0594708104081}, "id": "30113", "nombre": "Villaguay", "provincia": {"id": "30", "nombre": "Entre R\u00edos"}, "municipios": []}, {"centroide": {"lat": -31.5768835387468, "lon": -58.4863728567996}, "id": "30088", "nombre": "San Salvador", "provincia": {"id": "30", "nombre": "Entre R\u00edos"}, "municipios": []}, {"centroide": {"lat": -32.2187123475252, "lon": -59.7697019155424}, "id": "30077", "nombre": "Nogoy\u00e1", "provincia": {"id": "30", "nombre": "Entre R\u00edos"}, "municipios": []}, {"centroide": {"lat": -32.3174117217417, "lon": -59.2672864855269}, "id": "30091", "nombre": "Tala", "provincia": {"id": "30", "nombre": "Entre R\u00edos"}, "municipios": []}, {"centroide": {"lat": -30.8974563498339, "lon": -59.5004488104579}, "id": "30070", "nombre": "La Paz", "provincia": {"id": "30", "nombre": "Entre R\u00edos"}, "municipios": []}, {"centroide": {"lat": -31.2902983723403, "lon": -58.237869689912}, "id": "30015", "nombre": "Concordia", "provincia": {"id": "30", "nombre": "Entre R\u00edos"}, "municipios": []}, {"centroide": {"lat": -30.9924267797136, "lon": -58.8918600477837}, "id": "30035", "nombre": "Federal", "provincia": {"id": "30", "nombre": "Entre R\u00edos"}, "municipios": []}, {"centroide": {"lat": -33.0223492433906, "lon": -58.7857904865089}, "id": "30056", "nombre": "Gualeguaych\u00fa", "provincia": {"id": "30", "nombre": "Entre R\u00edos"}, "municipios": []}, {"centroide": {"lat": -33.6241288152628, "lon": -58.9351580556436}, "id": "30063", "nombre": "Islas del Ibicuy", "provincia": {"id": "30", "nombre": "Entre R\u00edos"}, "municipios": []}, {"centroide": {"lat": -32.7839424597327, "lon": -60.2180700309804}, "id": "30105", "nombre": "Victoria", "provincia": {"id": "30", "nombre": "Entre R\u00edos"}, "municipios": []}], "inicio": 0, "parametros": {"provincia": ["30"]}, "total": 17}}, {"centroide": {"lat": -48.8154851827063, "lon": -69.9557621671973}, "id": "78", "nombre": "Santa Cruz", "departamentos": {"cantidad": 7, "departamentos": [{"centroide": {"lat": -48.8383418225325, "lon": -68.4681621286703}, "id": "78042", "nombre": "Magallanes", "provincia": {"id": "78", "nombre": "Santa Cruz"}, "municipios": []}, {"centroide": {"lat": -49.9474837007267, "lon": -69.4469507225498}, "id": "78007", "nombre": "Corpen Aike", "provincia": {"id": "78", "nombre": "Santa Cruz"}, "municipios": []}, {"centroide": {"lat": -46.8341030724218, "lon": -70.6314100141799}, "id": "78035", "nombre": "Lago Buenos Aires", "provincia": {"id": "78", "nombre": "Santa Cruz"}, "municipios": []}, {"centroide": {"lat": -47.3305185775707, "lon": -68.0290787062148}, "id": "78014", "nombre": "Deseado", "provincia": {"id": "78", "nombre": "Santa Cruz"}, "municipios": []}, {"centroide": {"lat": -48.2873290186499, "lon": -71.1138374982594}, "id": "78049", "nombre": "R\u00edo Chico", "provincia": {"id": "78", "nombre": "Santa Cruz"}, "municipios": []}, {"centroide": {"lat": -49.8364881431632, "lon": -72.0654713338211}, "id": "78028", "nombre": "Lago Argentino", "provincia": {"id": "78", "nombre": "Santa Cruz"}, "municipios": []}, {"centroide": {"lat": -51.4134125040273, "lon": -70.5618155470895}, "id": "78021", "nombre": "G\u00fcer Aike", "provincia": {"id": "78", "nombre": "Santa Cruz"}, "municipios": []}], "inicio": 0, "parametros": {"provincia": ["78"]}, "total": 7}}, {"centroide": {"lat": -40.4057957178801, "lon": -67.229329893694}, "id": "62", "nombre": "R\u00edo Negro", "departamentos": {"cantidad": 10, "departamentos": [{"centroide": {"lat": -41.7398257356123, "lon": -70.4011139544739}, "id": "62056", "nombre": "\u00d1orquinco", "provincia": {"id": "62", "nombre": "R\u00edo Negro"}, "municipios": []}, {"centroide": {"lat": -39.4101860186287, "lon": -66.2062591058801}, "id": "62014", "nombre": "Avellaneda", "provincia": {"id": "62", "nombre": "R\u00edo Negro"}, "municipios": [{"centroide": {"lat": -39.3096814687974, "lon": -65.7874879345286}, "id": "620056", "nombre": "Luis Beltran", "provincia": {"id": "62", "nombre": "R\u00edo Negro"}}, {"centroide": {"lat": -39.2954108986731, "lon": -65.6496694401313}, "id": "620028", "nombre": "Choele Choel", "provincia": {"id": "62", "nombre": "R\u00edo Negro"}}, {"centroide": {"lat": -39.3988847133038, "lon": -65.6791011612072}, "id": "620049", "nombre": "Lamarque", "provincia": {"id": "62", "nombre": "R\u00edo Negro"}}]}, {"centroide": {"lat": -38.5324900624312, "lon": -67.554484164455}, "id": "62042", "nombre": "General Roca", "provincia": {"id": "62", "nombre": "R\u00edo Negro"}, "municipios": [{"centroide": {"lat": -39.0084775603203, "lon": -67.6126070896437}, "id": "620161", "nombre": "Gral. Roca", "provincia": {"id": "62", "nombre": "R\u00edo Negro"}}]}, {"centroide": {"lat": -39.7016431663172, "lon": -68.4845953824055}, "id": "62035", "nombre": "El Cuy", "provincia": {"id": "62", "nombre": "R\u00edo Negro"}, "municipios": [{"centroide": {"lat": -39.4535226486066, "lon": -68.691867486588}, "id": "620133", "nombre": "Cipolletti", "provincia": {"id": "62", "nombre": "R\u00edo Negro"}}]}, {"centroide": {"lat": -39.4076832777441, "lon": -64.4005868582138}, "id": "62063", "nombre": "Pichi Mahuida", "provincia": {"id": "62", "nombre": "R\u00edo Negro"}, "municipios": []}, {"centroide": {"lat": -40.7917543082478, "lon": -63.765086491035}, "id": "62007", "nombre": "Adolfo Alsina", "provincia": {"id": "62", "nombre": "R\u00edo Negro"}, "municipios": [{"centroide": {"lat": -40.4374907428096, "lon": -63.704869821598}, "id": "620007", "nombre": "Guardia Mitre", "provincia": {"id": "62", "nombre": "R\u00edo Negro"}}]}, {"centroide": {"lat": -40.9256367295503, "lon": -67.4574905887938}, "id": "62049", "nombre": "9 de julio", "provincia": {"id": "62", "nombre": "R\u00edo Negro"}, "municipios": []}, {"centroide": {"lat": -41.1330823086991, "lon": -68.9063154547507}, "id": "62091", "nombre": "25 de Mayo", "provincia": {"id": "62", "nombre": "R\u00edo Negro"}, "municipios": [{"centroide": {"lat": -41.3324324077447, "lon": -69.5580631515132}, "id": "620252", "nombre": "Ing. Jacobacci", "provincia": {"id": "62", "nombre": "R\u00edo Negro"}}]}, {"centroide": {"lat": -40.8875778145279, "lon": -70.4626919728142}, "id": "62070", "nombre": "Pilcaniyeu", "provincia": {"id": "62", "nombre": "R\u00edo Negro"}, "municipios": []}, {"centroide": {"lat": -40.1487161833477, "lon": -64.3048926460226}, "id": "62028", "nombre": "Conesa", "provincia": {"id": "62", "nombre": "R\u00edo Negro"}, "municipios": [{"centroide": {"lat": -40.1208064756328, "lon": -64.3692830696643}, "id": "620084", "nombre": "Gral. Conesa", "provincia": {"id": "62", "nombre": "R\u00edo Negro"}}]}], "inicio": 0, "parametros": {"provincia": ["62"]}, "total": 13}}, {"centroide": {"lat": -43.7886233529878, "lon": -68.5267593943345}, "id": "26", "nombre": "Chubut"}, {"centroide": {"lat": -32.142932663607, "lon": -63.8017532741662}, "id": "14", "nombre": "C\u00f3rdoba"}, {"centroide": {"lat": -34.6298873058957, "lon": -68.5831228183798}, "id": "50", "nombre": "Mendoza"}, {"centroide": {"lat": -29.685776298315, "lon": -67.1817359694432}, "id": "46", "nombre": "La Rioja"}, {"centroide": {"lat": -27.3358332810217, "lon": -66.9476824299928}, "id": "10", "nombre": "Catamarca"}, {"centroide": {"lat": -37.1315537735949, "lon": -65.4466546606951}, "id": "42", "nombre": "La Pampa"}, {"centroide": {"lat": -27.7824116550944, "lon": -63.2523866568588}, "id": "86", "nombre": "Santiago del Estero"}, {"centroide": {"lat": -28.7743047046407, "lon": -57.8012191977913}, "id": "18", "nombre": "Corrientes"}, {"centroide": {"lat": -30.7069271588117, "lon": -60.9498369430241}, "id": "82", "nombre": "Santa Fe"}, {"centroide": {"lat": -26.9478001830786, "lon": -65.3647579441481}, "id": "90", "nombre": "Tucum\u00e1n"}, {"centroide": {"lat": -38.6417575824599, "lon": -70.1185705180601}, "id": "58", "nombre": "Neuqu\u00e9n"}, {"centroide": {"lat": -24.2991344492002, "lon": -64.8144629600627}, "id": "66", "nombre": "Salta"}, {"centroide": {"lat": -26.3864309061226, "lon": -60.7658307438603}, "id": "22", "nombre": "Chaco"}, {"centroide": {"lat": -24.894972594871, "lon": -59.9324405800872}, "id": "34", "nombre": "Formosa"}, {"centroide": {"lat": -23.3200784211351, "lon": -65.7642522180337}, "id": "38", "nombre": "Jujuy"}, {"centroide": {"lat": -34.6144934119689, "lon": -58.4458563545429}, "id": "02", "nombre": "Ciudad Aut\u00f3noma de Buenos Aires"}, {"centroide": {"lat": -36.6769415180527, "lon": -60.5588319815719}, "id": "06", "nombre": "Buenos Aires"}, {"centroide": {"lat": -82.52151781221, "lon": -50.7427486049785}, "id": "94", "nombre": "Tierra del Fuego, Ant\u00e1rtida e Islas del Atl\u00e1ntico Sur"}], "total": 24}{"cantidad": 24, "inicio": 0, "parametros": {}, "provincias": [{"centroide": {"lat": -26.8753965086829, "lon": -54.6516966230371}, "id": "54", "nombre": "Misiones", "departamentos": {"cantidad": 10, "departamentos": [{"centroide": {"lat": -27.5507848284827, "lon": -55.856845031149}, "id": "54028", "nombre": "Capital", "provincia": {"id": "54", "nombre": "Misiones"}, "municipios": []}, {"centroide": {"lat": -25.8747354912768, "lon": -54.4004185891377}, "id": "54063", "nombre": "Iguaz\u00fa", "provincia": {"id": "54", "nombre": "Misiones"}, "municipios": []}, {"centroide": {"lat": -27.4763636003081, "lon": -55.0712221116124}, "id": "54091", "nombre": "Ober\u00e1", "provincia": {"id": "54", "nombre": "Misiones"}, "municipios": []}, {"centroide": {"lat": -27.1765939564162, "lon": -55.3392901890006}, "id": "54098", "nombre": "San Ignacio", "provincia": {"id": "54", "nombre": "Misiones"}, "municipios": []}, {"centroide": {"lat": -27.3786143623767, "lon": -54.634090486794}, "id": "54119", "nombre": "25 de Mayo", "provincia": {"id": "54", "nombre": "Misiones"}, "municipios": []}, {"centroide": {"lat": -27.7771031457714, "lon": -55.1674595934642}, "id": "54105", "nombre": "San Javier", "provincia": {"id": "54", "nombre": "Misiones"}, "municipios": []}, {"centroide": {"lat": -27.8888038850636, "lon": -55.6782740306512}, "id": "54007", "nombre": "Ap\u00f3stoles", "provincia": {"id": "54", "nombre": "Misiones"}, "municipios": [{"centroide": {"lat": -27.9025022905258, "lon": -55.7217304493641}, "id": "540007", "nombre": "Ap\u00f3stoles", "provincia": {"id": "54", "nombre": "Misiones"}}, {"centroide": {"lat": -27.9918146633049, "lon": -55.6141377080929}, "id": "540028", "nombre": "Tres Capones", "provincia": {"id": "54", "nombre": "Misiones"}}]}, {"centroide": {"lat": -26.3138449973517, "lon": -54.4407363386818}, "id": "54042", "nombre": "Eldorado", "provincia": {"id": "54", "nombre": "Misiones"}, "municipios": [{"centroide": {"lat": -26.4059052828746, "lon": -54.3574983163211}, "id": "540168", "nombre": "Santiago de Liniers", "provincia": {"id": "54", "nombre": "Misiones"}}]}, {"centroide": {"lat": -26.6299609405552, "lon": -53.9629779665021}, "id": "54112", "nombre": "San Pedro", "provincia": {"id": "54", "nombre": "Misiones"}, "municipios": [{"centroide": {"lat": -26.7112090360395, "lon": -53.9412291264285}, "id": "540504", "nombre": "San Pedro", "provincia": {"id": "54", "nombre": "Misiones"}}]}, {"centroide": {"lat": -26.6579081276292, "lon": -54.5631774073677}, "id": "54084", "nombre": "Montecarlo", "provincia": {"id": "54", "nombre": "Misiones"}, "municipios": [{"centroide": {"lat": -26.639779729458, "lon": -54.5625759117353}, "id": "540343", "nombre": "Montecarlo", "provincia": {"id": "54", "nombre": "Misiones"}}]}], "inicio": 0, "parametros": {"provincia": ["54"]}, "total": 17}}, {"centroide": {"lat": -33.7577257449137, "lon": -66.0281298195836}, "id": "74", "nombre": "San Luis", "departamentos": {"cantidad": 9, "departamentos": [{"centroide": {"lat": -32.1656565638277, "lon": -66.5422509844147}, "id": "74007", "nombre": "Ayacucho", "provincia": {"id": "74", "nombre": "San Luis"}, "municipios": [{"centroide": {"lat": -32.5944806749798, "lon": -66.1262207074521}, "id": "740028", "nombre": "San Francisco", "provincia": {"id": "74", "nombre": "San Luis"}}]}, {"centroide": {"lat": -32.7356115411335, "lon": -66.7150069507327}, "id": "74014", "nombre": "Belgrano", "provincia": {"id": "74", "nombre": "San Luis"}, "municipios": []}, {"centroide": {"lat": -35.369087077487, "lon": -65.8148193795656}, "id": "74042", "nombre": "Gobernador Dupuy", "provincia": {"id": "74", "nombre": "San Luis"}, "municipios": [{"centroide": {"lat": -34.7784823489821, "lon": -65.6871985106842}, "id": "746168", "nombre": "Batavia", "provincia": {"id": "74", "nombre": "San Luis"}}]}, {"centroide": {"lat": -32.216548125306, "lon": -65.3939560584901}, "id": "74049", "nombre": "Jun\u00edn", "provincia": {"id": "74", "nombre": "San Luis"}, "municipios": [{"centroide": {"lat": -32.3529400330367, "lon": -65.0070214618305}, "id": "740105", "nombre": "Merlo", "provincia": {"id": "74", "nombre": "San Luis"}}]}, {"centroide": {"lat": -32.7269672116015, "lon": -65.1982374778981}, "id": "74028", "nombre": "Chacabuco", "provincia": {"id": "74", "nombre": "San Luis"}, "municipios": []}, {"centroide": {"lat": -33.9008795169272, "lon": -66.5025775641531}, "id": "74056", "nombre": "Juan Mart\u00edn de Pueyrred\u00f3n", "provincia": {"id": "74", "nombre": "San Luis"}, "municipios": [{"centroide": {"lat": -33.8049276377293, "lon": -66.4148690167955}, "id": "746280", "nombre": "Zanjitas", "provincia": {"id": "74", "nombre": "San Luis"}}, {"centroide": {"lat": -33.7572721991329, "lon": -66.6446207562444}, "id": "746252", "nombre": "Beazley", "provincia": {"id": "74", "nombre": "San Luis"}}, {"centroide": {"lat": -33.4521935892927, "lon": -66.6363665748128}, "id": "746245", "nombre": "Balde", "provincia": {"id": "74", "nombre": "San Luis"}}, {"centroide": {"lat": -33.210106793768, "lon": -66.2316846459176}, "id": "746266", "nombre": "P. de los Funes", "provincia": {"id": "74", "nombre": "San Luis"}}, {"centroide": {"lat": -33.2951079835674, "lon": -66.2274958520562}, "id": "740119", "nombre": "Juana Koslay", "provincia": {"id": "74", "nombre": "San Luis"}}]}, {"centroide": {"lat": -33.8905514573194, "lon": -65.56285207424}, "id": "74035", "nombre": "General Pedernera", "provincia": {"id": "74", "nombre": "San Luis"}, "municipios": []}, {"centroide": {"lat": -32.5784192360116, "lon": -65.7095887724917}, "id": "74063", "nombre": "Libertador General San Mart\u00edn", "provincia": {"id": "74", "nombre": "San Luis"}, "municipios": []}, {"centroide": {"lat": -33.1068820542746, "lon": -65.900790202998}, "id": "74021", "nombre": "Coronel Pringles", "provincia": {"id": "74", "nombre": "San Luis"}, "municipios": [{"centroide": {"lat": -33.4675887566232, "lon": -65.8176668186051}, "id": "746049", "nombre": "Fraga", "provincia": {"id": "74", "nombre": "San Luis"}}, {"centroide": {"lat": -32.8230037708213, "lon": -66.1002883078041}, "id": "746035", "nombre": "Carolina", "provincia": {"id": "74", "nombre": "San Luis"}}]}], "inicio": 0, "parametros": {"provincia": ["74"]}, "total": 9}}, {"centroide": {"lat": -30.8653679979618, "lon": -68.8894908486844}, "id": "70", "nombre": "San Juan", "departamentos": {"cantidad": 10, "departamentos": [{"centroide": {"lat": -31.453365238609, "lon": -69.8338001250755}, "id": "70021", "nombre": "Calingasta", "provincia": {"id": "70", "nombre": "San Juan"}, "municipios": []}, {"centroide": {"lat": -31.9896198487776, "lon": -67.8274038981039}, "id": "70126", "nombre": "25 de Mayo", "provincia": {"id": "70", "nombre": "San Juan"}, "municipios": []}, {"centroide": {"lat": -29.6066873518726, "lon": -69.437949892691}, "id": "70049", "nombre": "Iglesia", "provincia": {"id": "70", "nombre": "San Juan"}, "municipios": [{"centroide": {"lat": -29.6066873518889, "lon": -69.4379498926956}, "id": "700049", "nombre": "Iglesia", "provincia": {"id": "70", "nombre": "San Juan"}}]}, {"centroide": {"lat": -30.7122962694155, "lon": -67.5323035648395}, "id": "70119", "nombre": "Valle F\u00e9rtil", "provincia": {"id": "70", "nombre": "San Juan"}, "municipios": [{"centroide": {"lat": -30.7122962694162, "lon": -67.532303564839}, "id": "700119", "nombre": "Valle F\u00e9rtil", "provincia": {"id": "70", "nombre": "San Juan"}}]}, {"centroide": {"lat": -31.0904647062097, "lon": -68.8815821606005}, "id": "70112", "nombre": "Ullum", "provincia": {"id": "70", "nombre": "San Juan"}, "municipios": [{"centroide": {"lat": -31.0904647062097, "lon": -68.8815821606005}, "id": "700112", "nombre": "Ullum", "provincia": {"id": "70", "nombre": "San Juan"}}]}, {"centroide": {"lat": -31.2096344810555, "lon": -68.4519807662306}, "id": "70007", "nombre": "Albard\u00f3n", "provincia": {"id": "70", "nombre": "San Juan"}, "municipios": [{"centroide": {"lat": -31.2096344810555, "lon": -68.4519807662306}, "id": "700007", "nombre": "Albard\u00f3n", "provincia": {"id": "70", "nombre": "San Juan"}}]}, {"centroide": {"lat": -31.6381980593912, "lon": -68.9555709233027}, "id": "70133", "nombre": "Zonda", "provincia": {"id": "70", "nombre": "San Juan"}, "municipios": [{"centroide": {"lat": -31.6381980593895, "lon": -68.9555709233009}, "id": "700133", "nombre": "Zonda", "provincia": {"id": "70", "nombre": "San Juan"}}]}, {"centroide": {"lat": -31.5542325394479, "lon": -68.6416232535812}, "id": "70084", "nombre": "Rivadavia", "provincia": {"id": "70", "nombre": "San Juan"}, "municipios": [{"centroide": {"lat": -31.5542325394479, "lon": -68.6416232535812}, "id": "700084", "nombre": "Rivadavia", "provincia": {"id": "70", "nombre": "San Juan"}}]}, {"centroide": {"lat": -31.5327173670967, "lon": -68.4634116809574}, "id": "70098", "nombre": "Santa Luc\u00eda", "provincia": {"id": "70", "nombre": "San Juan"}, "municipios": [{"centroide": {"lat": -31.5327173670967, "lon": -68.4634116809574}, "id": "700098", "nombre": "Santa Luc\u00eda", "provincia": {"id": "70", "nombre": "San Juan"}}]}, {"centroide": {"lat": -31.1922192642063, "lon": -68.1319625798128}, "id": "70014", "nombre": "Angaco", "provincia": {"id": "70", "nombre": "San Juan"}, "municipios": []}], "inicio": 0, "parametros": {"provincia": ["70"]}, "total": 19}}, {"centroide": {"lat": -32.0588735436448, "lon": -59.2014475514635}, "id": "30", "nombre": "Entre R\u00edos", "departamentos": {"cantidad": 10, "departamentos": [{"centroide": {"lat": -31.6477388963494, "lon": -59.0594708104081}, "id": "30113", "nombre": "Villaguay", "provincia": {"id": "30", "nombre": "Entre R\u00edos"}, "municipios": []}, {"centroide": {"lat": -31.5768835387468, "lon": -58.4863728567996}, "id": "30088", "nombre": "San Salvador", "provincia": {"id": "30", "nombre": "Entre R\u00edos"}, "municipios": []}, {"centroide": {"lat": -32.2187123475252, "lon": -59.7697019155424}, "id": "30077", "nombre": "Nogoy\u00e1", "provincia": {"id": "30", "nombre": "Entre R\u00edos"}, "municipios": []}, {"centroide": {"lat": -32.3174117217417, "lon": -59.2672864855269}, "id": "30091", "nombre": "Tala", "provincia": {"id": "30", "nombre": "Entre R\u00edos"}, "municipios": []}, {"centroide": {"lat": -30.8974563498339, "lon": -59.5004488104579}, "id": "30070", "nombre": "La Paz", "provincia": {"id": "30", "nombre": "Entre R\u00edos"}, "municipios": []}, {"centroide": {"lat": -31.2902983723403, "lon": -58.237869689912}, "id": "30015", "nombre": "Concordia", "provincia": {"id": "30", "nombre": "Entre R\u00edos"}, "municipios": []}, {"centroide": {"lat": -30.9924267797136, "lon": -58.8918600477837}, "id": "30035", "nombre": "Federal", "provincia": {"id": "30", "nombre": "Entre R\u00edos"}, "municipios": []}, {"centroide": {"lat": -33.0223492433906, "lon": -58.7857904865089}, "id": "30056", "nombre": "Gualeguaych\u00fa", "provincia": {"id": "30", "nombre": "Entre R\u00edos"}, "municipios": []}, {"centroide": {"lat": -33.6241288152628, "lon": -58.9351580556436}, "id": "30063", "nombre": "Islas del Ibicuy", "provincia": {"id": "30", "nombre": "Entre R\u00edos"}, "municipios": []}, {"centroide": {"lat": -32.7839424597327, "lon": -60.2180700309804}, "id": "30105", "nombre": "Victoria", "provincia": {"id": "30", "nombre": "Entre R\u00edos"}, "municipios": []}], "inicio": 0, "parametros": {"provincia": ["30"]}, "total": 17}}, {"centroide": {"lat": -48.8154851827063, "lon": -69.9557621671973}, "id": "78", "nombre": "Santa Cruz", "departamentos": {"cantidad": 7, "departamentos": [{"centroide": {"lat": -48.8383418225325, "lon": -68.4681621286703}, "id": "78042", "nombre": "Magallanes", "provincia": {"id": "78", "nombre": "Santa Cruz"}, "municipios": []}, {"centroide": {"lat": -49.9474837007267, "lon": -69.4469507225498}, "id": "78007", "nombre": "Corpen Aike", "provincia": {"id": "78", "nombre": "Santa Cruz"}, "municipios": []}, {"centroide": {"lat": -46.8341030724218, "lon": -70.6314100141799}, "id": "78035", "nombre": "Lago Buenos Aires", "provincia": {"id": "78", "nombre": "Santa Cruz"}, "municipios": []}, {"centroide": {"lat": -47.3305185775707, "lon": -68.0290787062148}, "id": "78014", "nombre": "Deseado", "provincia": {"id": "78", "nombre": "Santa Cruz"}, "municipios": []}, {"centroide": {"lat": -48.2873290186499, "lon": -71.1138374982594}, "id": "78049", "nombre": "R\u00edo Chico", "provincia": {"id": "78", "nombre": "Santa Cruz"}, "municipios": []}, {"centroide": {"lat": -49.8364881431632, "lon": -72.0654713338211}, "id": "78028", "nombre": "Lago Argentino", "provincia": {"id": "78", "nombre": "Santa Cruz"}, "municipios": []}, {"centroide": {"lat": -51.4134125040273, "lon": -70.5618155470895}, "id": "78021", "nombre": "G\u00fcer Aike", "provincia": {"id": "78", "nombre": "Santa Cruz"}, "municipios": []}], "inicio": 0, "parametros": {"provincia": ["78"]}, "total": 7}}, {"centroide": {"lat": -40.4057957178801, "lon": -67.229329893694}, "id": "62", "nombre": "R\u00edo Negro", "departamentos": {"cantidad": 10, "departamentos": [{"centroide": {"lat": -41.7398257356123, "lon": -70.4011139544739}, "id": "62056", "nombre": "\u00d1orquinco", "provincia": {"id": "62", "nombre": "R\u00edo Negro"}, "municipios": []}, {"centroide": {"lat": -39.4101860186287, "lon": -66.2062591058801}, "id": "62014", "nombre": "Avellaneda", "provincia": {"id": "62", "nombre": "R\u00edo Negro"}, "municipios": [{"centroide": {"lat": -39.3096814687974, "lon": -65.7874879345286}, "id": "620056", "nombre": "Luis Beltran", "provincia": {"id": "62", "nombre": "R\u00edo Negro"}}, {"centroide": {"lat": -39.2954108986731, "lon": -65.6496694401313}, "id": "620028", "nombre": "Choele Choel", "provincia": {"id": "62", "nombre": "R\u00edo Negro"}}, {"centroide": {"lat": -39.3988847133038, "lon": -65.6791011612072}, "id": "620049", "nombre": "Lamarque", "provincia": {"id": "62", "nombre": "R\u00edo Negro"}}]}, {"centroide": {"lat": -38.5324900624312, "lon": -67.554484164455}, "id": "62042", "nombre": "General Roca", "provincia": {"id": "62", "nombre": "R\u00edo Negro"}, "municipios": [{"centroide": {"lat": -39.0084775603203, "lon": -67.6126070896437}, "id": "620161", "nombre": "Gral. Roca", "provincia": {"id": "62", "nombre": "R\u00edo Negro"}}]}, {"centroide": {"lat": -39.7016431663172, "lon": -68.4845953824055}, "id": "62035", "nombre": "El Cuy", "provincia": {"id": "62", "nombre": "R\u00edo Negro"}, "municipios": [{"centroide": {"lat": -39.4535226486066, "lon": -68.691867486588}, "id": "620133", "nombre": "Cipolletti", "provincia": {"id": "62", "nombre": "R\u00edo Negro"}}]}, {"centroide": {"lat": -39.4076832777441, "lon": -64.4005868582138}, "id": "62063", "nombre": "Pichi Mahuida", "provincia": {"id": "62", "nombre": "R\u00edo Negro"}, "municipios": []}, {"centroide": {"lat": -40.7917543082478, "lon": -63.765086491035}, "id": "62007", "nombre": "Adolfo Alsina", "provincia": {"id": "62", "nombre": "R\u00edo Negro"}, "municipios": [{"centroide": {"lat": -40.4374907428096, "lon": -63.704869821598}, "id": "620007", "nombre": "Guardia Mitre", "provincia": {"id": "62", "nombre": "R\u00edo Negro"}}]}, {"centroide": {"lat": -40.9256367295503, "lon": -67.4574905887938}, "id": "62049", "nombre": "9 de julio", "provincia": {"id": "62", "nombre": "R\u00edo Negro"}, "municipios": []}, {"centroide": {"lat": -41.1330823086991, "lon": -68.9063154547507}, "id": "62091", "nombre": "25 de Mayo", "provincia": {"id": "62", "nombre": "R\u00edo Negro"}, "municipios": [{"centroide": {"lat": -41.3324324077447, "lon": -69.5580631515132}, "id": "620252", "nombre": "Ing. Jacobacci", "provincia": {"id": "62", "nombre": "R\u00edo Negro"}}]}, {"centroide": {"lat": -40.8875778145279, "lon": -70.4626919728142}, "id": "62070", "nombre": "Pilcaniyeu", "provincia": {"id": "62", "nombre": "R\u00edo Negro"}, "municipios": []}, {"centroide": {"lat": -40.1487161833477, "lon": -64.3048926460226}, "id": "62028", "nombre": "Conesa", "provincia": {"id": "62", "nombre": "R\u00edo Negro"}, "municipios": [{"centroide": {"lat": -40.1208064756328, "lon": -64.3692830696643}, "id": "620084", "nombre": "Gral. Conesa", "provincia": {"id": "62", "nombre": "R\u00edo Negro"}}]}], "inicio": 0, "parametros": {"provincia": ["62"]}, "total": 13}}, {"centroide": {"lat": -43.7886233529878, "lon": -68.5267593943345}, "id": "26", "nombre": "Chubut", "departamentos": {"cantidad": 10, "departamentos": [{"centroide": {"lat": -43.1372229709113, "lon": -65.0757246833498}, "id": "26077", "nombre": "Rawson", "provincia": {"id": "26", "nombre": "Chubut"}, "municipios": [{"centroide": {"lat": -43.2585661872238, "lon": -65.088623341394}, "id": "260112", "nombre": "Rawson", "provincia": {"id": "26", "nombre": "Chubut"}}]}, {"centroide": {"lat": -42.36635302228, "lon": -70.7120117319755}, "id": "26014", "nombre": "Cushamen", "provincia": {"id": "26", "nombre": "Chubut"}, "municipios": [{"centroide": {"lat": -42.1227715249121, "lon": -71.1509289608383}, "id": "260028", "nombre": "El Mait\u00e9n", "provincia": {"id": "26", "nombre": "Chubut"}}, {"centroide": {"lat": -42.482632829529, "lon": -71.4218533427071}, "id": "260014", "nombre": "Cholila", "provincia": {"id": "26", "nombre": "Chubut"}}]}, {"centroide": {"lat": -43.3234947781653, "lon": -70.3484257364086}, "id": "26056", "nombre": "Langui\u00f1eo", "provincia": {"id": "26", "nombre": "Chubut"}, "municipios": [{"centroide": {"lat": -43.5775203888784, "lon": -71.6561282123594}, "id": "268056", "nombre": "Carrenleuf\u00fa", "provincia": {"id": "26", "nombre": "Chubut"}}]}, {"centroide": {"lat": -43.070540741803, "lon": -71.4553756889394}, "id": "26035", "nombre": "Futaleuf\u00fa", "provincia": {"id": "26", "nombre": "Chubut"}, "municipios": []}, {"centroide": {"lat": -44.2000353406651, "lon": -70.5768950488331}, "id": "26098", "nombre": "Tehuelches", "provincia": {"id": "26", "nombre": "Chubut"}, "municipios": [{"centroide": {"lat": -44.1813420342195, "lon": -71.3431136361393}, "id": "260161", "nombre": "R\u00edo Pico", "provincia": {"id": "26", "nombre": "Chubut"}}, {"centroide": {"lat": -44.2923070734091, "lon": -70.7832052068574}, "id": "260147", "nombre": "Gobernador Costa", "provincia": {"id": "26", "nombre": "Chubut"}}]}, {"centroide": {"lat": -45.282788434735, "lon": -67.7087570024311}, "id": "26021", "nombre": "Escalante", "provincia": {"id": "26", "nombre": "Chubut"}, "municipios": []}, {"centroide": {"lat": -45.3450235273933, "lon": -69.0028353555711}, "id": "26091", "nombre": "Sarmiento", "provincia": {"id": "26", "nombre": "Chubut"}, "municipios": [{"centroide": {"lat": -45.068316569196, "lon": -69.4653884108616}, "id": "268119", "nombre": "Buen Pasto", "provincia": {"id": "26", "nombre": "Chubut"}}]}, {"centroide": {"lat": -42.4389445468027, "lon": -67.1769071477022}, "id": "26105", "nombre": "Telsen", "provincia": {"id": "26", "nombre": "Chubut"}, "municipios": []}, {"centroide": {"lat": -43.2727624456965, "lon": -66.172162203297}, "id": "26042", "nombre": "Gaiman", "provincia": {"id": "26", "nombre": "Chubut"}, "municipios": [{"centroide": {"lat": -43.3837023377194, "lon": -65.8391207473089}, "id": "265014", "nombre": "28 de Julio", "provincia": {"id": "26", "nombre": "Chubut"}}]}, {"centroide": {"lat": -43.8138432526407, "lon": -67.2400230074032}, "id": "26063", "nombre": "M\u00e1rtires", "provincia": {"id": "26", "nombre": "Chubut"}, "municipios": []}], "inicio": 0, "parametros": {"provincia": ["26"]}, "total": 15}}, {"centroide": {"lat": -32.142932663607, "lon": -63.8017532741662}, "id": "14", "nombre": "C\u00f3rdoba"}, {"centroide": {"lat": -34.6298873058957, "lon": -68.5831228183798}, "id": "50", "nombre": "Mendoza"}, {"centroide": {"lat": -29.685776298315, "lon": -67.1817359694432}, "id": "46", "nombre": "La Rioja"}, {"centroide": {"lat": -27.3358332810217, "lon": -66.9476824299928}, "id": "10", "nombre": "Catamarca"}, {"centroide": {"lat": -37.1315537735949, "lon": -65.4466546606951}, "id": "42", "nombre": "La Pampa"}, {"centroide": {"lat": -27.7824116550944, "lon": -63.2523866568588}, "id": "86", "nombre": "Santiago del Estero"}, {"centroide": {"lat": -28.7743047046407, "lon": -57.8012191977913}, "id": "18", "nombre": "Corrientes"}, {"centroide": {"lat": -30.7069271588117, "lon": -60.9498369430241}, "id": "82", "nombre": "Santa Fe"}, {"centroide": {"lat": -26.9478001830786, "lon": -65.3647579441481}, "id": "90", "nombre": "Tucum\u00e1n"}, {"centroide": {"lat": -38.6417575824599, "lon": -70.1185705180601}, "id": "58", "nombre": "Neuqu\u00e9n"}, {"centroide": {"lat": -24.2991344492002, "lon": -64.8144629600627}, "id": "66", "nombre": "Salta"}, {"centroide": {"lat": -26.3864309061226, "lon": -60.7658307438603}, "id": "22", "nombre": "Chaco"}, {"centroide": {"lat": -24.894972594871, "lon": -59.9324405800872}, "id": "34", "nombre": "Formosa"}, {"centroide": {"lat": -23.3200784211351, "lon": -65.7642522180337}, "id": "38", "nombre": "Jujuy"}, {"centroide": {"lat": -34.6144934119689, "lon": -58.4458563545429}, "id": "02", "nombre": "Ciudad Aut\u00f3noma de Buenos Aires"}, {"centroide": {"lat": -36.6769415180527, "lon": -60.5588319815719}, "id": "06", "nombre": "Buenos Aires"}, {"centroide": {"lat": -82.52151781221, "lon": -50.7427486049785}, "id": "94", "nombre": "Tierra del Fuego, Ant\u00e1rtida e Islas del Atl\u00e1ntico Sur"}], "total": 24}{"cantidad": 24, "inicio": 0, "parametros": {}, "provincias": [{"centroide": {"lat": -26.8753965086829, "lon": -54.6516966230371}, "id": "54", "nombre": "Misiones", "departamentos": {"cantidad": 10, "departamentos": [{"centroide": {"lat": -27.5507848284827, "lon": -55.856845031149}, "id": "54028", "nombre": "Capital", "provincia": {"id": "54", "nombre": "Misiones"}, "municipios": []}, {"centroide": {"lat": -25.8747354912768, "lon": -54.4004185891377}, "id": "54063", "nombre": "Iguaz\u00fa", "provincia": {"id": "54", "nombre": "Misiones"}, "municipios": []}, {"centroide": {"lat": -27.4763636003081, "lon": -55.0712221116124}, "id": "54091", "nombre": "Ober\u00e1", "provincia": {"id": "54", "nombre": "Misiones"}, "municipios": []}, {"centroide": {"lat": -27.1765939564162, "lon": -55.3392901890006}, "id": "54098", "nombre": "San Ignacio", "provincia": {"id": "54", "nombre": "Misiones"}, "municipios": []}, {"centroide": {"lat": -27.3786143623767, "lon": -54.634090486794}, "id": "54119", "nombre": "25 de Mayo", "provincia": {"id": "54", "nombre": "Misiones"}, "municipios": []}, {"centroide": {"lat": -27.7771031457714, "lon": -55.1674595934642}, "id": "54105", "nombre": "San Javier", "provincia": {"id": "54", "nombre": "Misiones"}, "municipios": []}, {"centroide": {"lat": -27.8888038850636, "lon": -55.6782740306512}, "id": "54007", "nombre": "Ap\u00f3stoles", "provincia": {"id": "54", "nombre": "Misiones"}, "municipios": [{"centroide": {"lat": -27.9025022905258, "lon": -55.7217304493641}, "id": "540007", "nombre": "Ap\u00f3stoles", "provincia": {"id": "54", "nombre": "Misiones"}}, {"centroide": {"lat": -27.9918146633049, "lon": -55.6141377080929}, "id": "540028", "nombre": "Tres Capones", "provincia": {"id": "54", "nombre": "Misiones"}}]}, {"centroide": {"lat": -26.3138449973517, "lon": -54.4407363386818}, "id": "54042", "nombre": "Eldorado", "provincia": {"id": "54", "nombre": "Misiones"}, "municipios": [{"centroide": {"lat": -26.4059052828746, "lon": -54.3574983163211}, "id": "540168", "nombre": "Santiago de Liniers", "provincia": {"id": "54", "nombre": "Misiones"}}]}, {"centroide": {"lat": -26.6299609405552, "lon": -53.9629779665021}, "id": "54112", "nombre": "San Pedro", "provincia": {"id": "54", "nombre": "Misiones"}, "municipios": [{"centroide": {"lat": -26.7112090360395, "lon": -53.9412291264285}, "id": "540504", "nombre": "San Pedro", "provincia": {"id": "54", "nombre": "Misiones"}}]}, {"centroide": {"lat": -26.6579081276292, "lon": -54.5631774073677}, "id": "54084", "nombre": "Montecarlo", "provincia": {"id": "54", "nombre": "Misiones"}, "municipios": [{"centroide": {"lat": -26.639779729458, "lon": -54.5625759117353}, "id": "540343", "nombre": "Montecarlo", "provincia": {"id": "54", "nombre": "Misiones"}}]}], "inicio": 0, "parametros": {"provincia": ["54"]}, "total": 17}}, {"centroide": {"lat": -33.7577257449137, "lon": -66.0281298195836}, "id": "74", "nombre": "San Luis", "departamentos": {"cantidad": 9, "departamentos": [{"centroide": {"lat": -32.1656565638277, "lon": -66.5422509844147}, "id": "74007", "nombre": "Ayacucho", "provincia": {"id": "74", "nombre": "San Luis"}, "municipios": [{"centroide": {"lat": -32.5944806749798, "lon": -66.1262207074521}, "id": "740028", "nombre": "San Francisco", "provincia": {"id": "74", "nombre": "San Luis"}}]}, {"centroide": {"lat": -32.7356115411335, "lon": -66.7150069507327}, "id": "74014", "nombre": "Belgrano", "provincia": {"id": "74", "nombre": "San Luis"}, "municipios": []}, {"centroide": {"lat": -35.369087077487, "lon": -65.8148193795656}, "id": "74042", "nombre": "Gobernador Dupuy", "provincia": {"id": "74", "nombre": "San Luis"}, "municipios": [{"centroide": {"lat": -34.7784823489821, "lon": -65.6871985106842}, "id": "746168", "nombre": "Batavia", "provincia": {"id": "74", "nombre": "San Luis"}}]}, {"centroide": {"lat": -32.216548125306, "lon": -65.3939560584901}, "id": "74049", "nombre": "Jun\u00edn", "provincia": {"id": "74", "nombre": "San Luis"}, "municipios": [{"centroide": {"lat": -32.3529400330367, "lon": -65.0070214618305}, "id": "740105", "nombre": "Merlo", "provincia": {"id": "74", "nombre": "San Luis"}}]}, {"centroide": {"lat": -32.7269672116015, "lon": -65.1982374778981}, "id": "74028", "nombre": "Chacabuco", "provincia": {"id": "74", "nombre": "San Luis"}, "municipios": []}, {"centroide": {"lat": -33.9008795169272, "lon": -66.5025775641531}, "id": "74056", "nombre": "Juan Mart\u00edn de Pueyrred\u00f3n", "provincia": {"id": "74", "nombre": "San Luis"}, "municipios": [{"centroide": {"lat": -33.8049276377293, "lon": -66.4148690167955}, "id": "746280", "nombre": "Zanjitas", "provincia": {"id": "74", "nombre": "San Luis"}}, {"centroide": {"lat": -33.7572721991329, "lon": -66.6446207562444}, "id": "746252", "nombre": "Beazley", "provincia": {"id": "74", "nombre": "San Luis"}}, {"centroide": {"lat": -33.4521935892927, "lon": -66.6363665748128}, "id": "746245", "nombre": "Balde", "provincia": {"id": "74", "nombre": "San Luis"}}, {"centroide": {"lat": -33.210106793768, "lon": -66.2316846459176}, "id": "746266", "nombre": "P. de los Funes", "provincia": {"id": "74", "nombre": "San Luis"}}, {"centroide": {"lat": -33.2951079835674, "lon": -66.2274958520562}, "id": "740119", "nombre": "Juana Koslay", "provincia": {"id": "74", "nombre": "San Luis"}}]}, {"centroide": {"lat": -33.8905514573194, "lon": -65.56285207424}, "id": "74035", "nombre": "General Pedernera", "provincia": {"id": "74", "nombre": "San Luis"}, "municipios": []}, {"centroide": {"lat": -32.5784192360116, "lon": -65.7095887724917}, "id": "74063", "nombre": "Libertador General San Mart\u00edn", "provincia": {"id": "74", "nombre": "San Luis"}, "municipios": []}, {"centroide": {"lat": -33.1068820542746, "lon": -65.900790202998}, "id": "74021", "nombre": "Coronel Pringles", "provincia": {"id": "74", "nombre": "San Luis"}, "municipios": [{"centroide": {"lat": -33.4675887566232, "lon": -65.8176668186051}, "id": "746049", "nombre": "Fraga", "provincia": {"id": "74", "nombre": "San Luis"}}, {"centroide": {"lat": -32.8230037708213, "lon": -66.1002883078041}, "id": "746035", "nombre": "Carolina", "provincia": {"id": "74", "nombre": "San Luis"}}]}], "inicio": 0, "parametros": {"provincia": ["74"]}, "total": 9}}, {"centroide": {"lat": -30.8653679979618, "lon": -68.8894908486844}, "id": "70", "nombre": "San Juan", "departamentos": {"cantidad": 10, "departamentos": [{"centroide": {"lat": -31.453365238609, "lon": -69.8338001250755}, "id": "70021", "nombre": "Calingasta", "provincia": {"id": "70", "nombre": "San Juan"}, "municipios": []}, {"centroide": {"lat": -31.9896198487776, "lon": -67.8274038981039}, "id": "70126", "nombre": "25 de Mayo", "provincia": {"id": "70", "nombre": "San Juan"}, "municipios": []},