{"54007": [{"departamento": {"id": "54007", "nombre": "Ap\u00f3stoles"}, "lat": -27.9025022905258, "lon": -55.7217304493641, "municipio": {"id": "540007", "nombre": "Ap\u00f3stoles"}, "provincia": {"id": "54", "nombre": "Misiones"}}, {"departamento": {"id": "54007", "nombre": "Ap\u00f3stoles"}, "lat": -27.9918146633049, "lon": -55.6141377080929, "municipio": {"id": "540028", "nombre": "Tres Capones"}, "provincia": {"id": "54", "nombre": "Misiones"}}, {"departamento": {"id": "54007", "nombre": "Ap\u00f3stoles"}, "lat": -28.0544358853964, "lon": -55.6663453779073, "municipio": {"id": "540014", "nombre": "Azara"}, "provincia": {"id": "54", "nombre": "Misiones"}}, {"departamento": {"id": "54007", "nombre": "Ap\u00f3stoles"}, "lat": -27.7754603717937, "lon": -55.6691612915895, "municipio": {"id": "540021", "nombre": "San Jos\u00e9"}, "provincia": {"id": "54", "nombre": "Misiones"}}], "54021": [{"departamento": {"id": "54021", "nombre": "Candelaria"}, "lat": -27.4192742863885, "lon": -55.3818743554229, "municipio": {"id": "540084", "nombre": "M\u00e1rtires"}, "provincia": {"id": "54", "nombre": "Misiones"}}, {"departamento": {"id": "54021", "nombre": "Candelaria"}, "lat": -27.5269569187276, "lon": -55.602078795522, "municipio": {"id": "540070", "nombre": "Cerro Cor\u00e1"}, "provincia": {"id": "54", "nombre": "Misiones"}}, {"departamento": {"id": "54021", "nombre": "Candelaria"}, "lat": -27.4093121831825, "lon": -55.5975181316591, "municipio": {"id": "540098", "nombre": "Santa Ana"}, "provincia": {"id": "54", "nombre": "Misiones"}}, {"departamento": {"id": "54021", "nombre": "Candelaria"}, "lat": -27.5596067764968, "lon": -55.7184719443713, "municipio": {"id": "540091", "nombre": "Profundidad"}, "provincia": {"id": "54", "nombre": "Misiones"}}, {"departamento": {"id": "54021", "nombre": "Candelaria"}, "lat": -27.4778638061425, "lon": -55.4718692017467, "municipio": {"id": "540056", "nombre": "Bonpland"}, "provincia": {"id": "54", "nombre": "Misiones"}}, {"departamento": {"id": "54021", "nombre": "Candelaria"}, "lat": -27.4689188332012, "lon": -55.7145175073734, "municipio": {"id": "540063", "nombre": "Candelaria"}, "provincia": {"id": "54", "nombre": "Misiones"}}, {"departamento": {"id": "54021", "nombre": "Candelaria"}, "lat": -27.3567760317075, "lon": -55.5127073353104, "municipio": {"id": "540077", "nombre": "Loreto"}, "provincia": {"id": "54", "nombre": "Misiones"}}], "54042": [{"departamento": {"id": "54042", "nombre": "Eldorado"}, "lat": -26.4059052828746, "lon": -54.3574983163211, "municipio": {"id": "540168", "nombre": "Santiago de Liniers"}, "provincia": {"id": "54", "nombre": "Misiones"}}, {"departamento": {"id": "54042", "nombre": "Eldorado"}, "lat": -26.2054681649102, "lon": -54.3968718901781, "municipio": {"id": "540140", "nombre": "Colonia Delicia"}, "provincia": {"id": "54", "nombre": "Misiones"}}, {"departamento": {"id": "54042", "nombre": "Eldorado"}, "lat": -26.3079117238366, "lon": -54.4956399291883, "municipio": {"id": "540147", "nombre": "Colonia Victoria"}, "provincia": {"id": "54", "nombre": "Misiones"}}, {"departamento": {"id": "54042", "nombre": "Eldorado"}, "lat": -26.4348876114394, "lon": -54.4912136871941, "municipio": {"id": "540161", "nombre": "9 de Julio"}, "provincia": {"id": "54", "nombre": "Misiones"}}, {"departamento": {"id": "54042", "nombre": "Eldorado"}, "lat": -26.4223788581657, "lon": -54.6153014553097, "municipio": {"id": "540154", "nombre": "Eldorado"}, "provincia": {"id": "54", "nombre": "Misiones"}}], "54112": [{"departamento": {"id": "54112", "nombre": "San Pedro"}, "lat": -26.7112090360395, "lon": -53.9412291264285, "municipio": {"id": "540504", "nombre": "San Pedro"}, "provincia": {"id": "54", "nombre": "Misiones"}}], "54014": [{"departamento": {"id": "54014", "nombre": "Caingu\u00e1s"}, "lat": -27.2318963611694, "lon": -54.961413530837, "municipio": {"id": "540042", "nombre": "Campo Grande"}, "provincia": {"id": "54", "nombre": "Misiones"}}, {"departamento": {"id": "54014", "nombre": "Caingu\u00e1s"}, "lat": -27.1247440389736, "lon": -54.8269103165253, "municipio": {"id": "540035", "nombre": "Arist\u00f3bulo del Valle"}, "provincia": {"id": "54", "nombre": "Misiones"}}, {"departamento": {"id": "54014", "nombre": "Caingu\u00e1s"}, "lat": -27.0916027750349, "lon": -54.6114381158115, "municipio": {"id": "540049", "nombre": "Dos de Mayo"}, "provincia": {"id": "54", "nombre": "Misiones"}}], "54077": [{"departamento": {"id": "54077", "nombre": "Libertador General San Mart\u00edn"}, "lat": -26.8443110448476, "lon": -55.0464275552228, "municipio": {"id": "540322", "nombre": "Puerto Rico"}, "provincia": {"id": "54", "nombre": "Misiones"}}, {"departamento": {"id": "54077", "nombre": "Libertador General San Mart\u00edn"}, "lat": -26.8436076435471, "lon": -54.7771362135852, "municipio": {"id": "540301", "nombre": "El Alc\u00e1zar"}, "provincia": {"id": "54", "nombre": "Misiones"}}, {"departamento": {"id": "54077", "nombre": "Libertador General San Mart\u00edn"}, "lat": -26.9170167064855, "lon": -55.058944620698, "municipio": {"id": "540294", "nombre": "Capiov\u00ed"}, "provincia": {"id": "54", "nombre": "Misiones"}}, {"departamento": {"id": "54077", "nombre": "Libertador General San Mart\u00edn"}, "lat": -27.0137225461159, "lon": -55.041599435926, "municipio": {"id": "540329", "nombre": "Ruiz de Montoya"}, "provincia": {"id": "54", "nombre": "Misiones"}}, {"departamento": {"id": "54077", "nombre": "Libertador General San Mart\u00edn"}, "lat": -26.9961973424163, "lon": -55.1380752661386, "municipio": {"id": "540315", "nombre": "Leoni"}, "provincia": {"id": "54", "nombre": "Misiones"}}, {"departamento": {"id": "54077", "nombre": "Libertador General San Mart\u00edn"}, "lat": -26.8872609443926, "lon": -54.9072138973559, "municipio": {"id": "540308", "nombre": "Garuhap\u00e9"}, "provincia": {"id": "54", "nombre": "Misiones"}}], "54084": [{"departamento": {"id": "54084", "nombre": "Montecarlo"}, "lat": -26.639779729458, "lon": -54.5625759117353, "municipio": {"id": "540343", "nombre": "Montecarlo"}, "provincia": {"id": "54", "nombre": "Misiones"}}, {"departamento": {"id": "54084", "nombre": "Montecarlo"}, "lat": -26.7880792818679, "lon": -54.6714739429375, "municipio": {"id": "540336", "nombre": "Caraguatay"}, "provincia": {"id": "54", "nombre": "Misiones"}}, {"departamento": {"id": "54084", "nombre": "Montecarlo"}, "lat": -26.5386325781089, "lon": -54.4261810360779, "municipio": {"id": "540350", "nombre": "Puerto Piray"}, "provincia": {"id": "54", "nombre": "Misiones"}}], "54056": [{"departamento": {"id": "54056", "nombre": "Guaran\u00ed"}, "lat": -27.0791879419082, "lon": -54.1568795747353, "municipio": {"id": "540196", "nombre": "El Soberbio"}, "provincia": {"id": "54", "nombre": "Misiones"}}, {"departamento": {"id": "54056", "nombre": "Guaran\u00ed"}, "lat": -26.9628192811879, "lon": -54.4040788497149, "municipio": {"id": "540203", "nombre": "San Vicente"}, "provincia": {"id": "54", "nombre": "Misiones"}}], "54028": [{"departamento": {"id": "54028", "nombre": "Capital"}, "lat": -27.5440492834756, "lon": -55.8649965962929, "municipio": {"id": "540112", "nombre": "Garup\u00e1"}, "provincia": {"id": "54", "nombre": "Misiones"}}, {"departamento": {"id": "54028", "nombre": "Capital"}, "lat": -27.4338171392785, "lon": -55.9588395478272, "municipio": {"id": "540119", "nombre": "Posadas"}, "provincia": {"id": "54", "nombre": "Misiones"}}, {"departamento": {"id": "54028", "nombre": "Capital"}, "lat": -27.6682436215363, "lon": -55.752406330818, "municipio": {"id": "540105", "nombre": "Fachinal"}, "provincia": {"id": "54", "nombre": "Misiones"}}], "54098": [{"departamento": {"id": "54098", "nombre": "San Ignacio"}, "lat": -27.1463492893014, "lon": -55.5070851678503, "municipio": {"id": "540427", "nombre": "Corpus"}, "provincia": {"id": "54", "nombre": "Misiones"}}, {"departamento": {"id": "54098", "nombre": "San Ignacio"}, "lat": -27.2531814207832, "lon": -55.3680377708939, "municipio": {"id": "540441", "nombre": "Gobernador Roca"}, "provincia": {"id": "54", "nombre": "Misiones"}}, {"departamento": {"id": "54098", "nombre": "San Ignacio"}, "lat": -27.1001832606051, "lon": -55.3071982607112, "municipio": {"id": "540448", "nombre": "Hip\u00f3lito Irigoyen"}, "provincia": {"id": "54", "nombre": "Misiones"}}, {"departamento": {"id": "54098", "nombre": "San Ignacio"}, "lat": -27.2063287575881, "lon": -55.279570796595, "municipio": {"id": "540469", "nombre": "Santo Pipo"}, "provincia": {"id": "54", "nombre": "Misiones"}}, {"departamento": {"id": "54098", "nombre": "San Ignacio"}, "lat": -27.0078976283378, "lon": -55.3166124203083, "municipio": {"id": "540420", "nombre": "Colonia Polana"}, "provincia": {"id": "54", "nombre": "Misiones"}}, {"departamento": {"id": "54098", "nombre": "San Ignacio"}, "lat": -27.0873119097214, "lon": -55.1946087942069, "municipio": {"id": "540455", "nombre": "Jard\u00edn Am\u00e9rica"}, "provincia": {"id": "54", "nombre": "Misiones"}}, {"departamento": {"id": "54098", "nombre": "San Ignacio"}, "lat": -27.0500317841879, "lon": -55.3936187774799, "municipio": {"id": "540434", "nombre": "General J. J. Urquiza"}, "provincia": {"id": "54", "nombre": "Misiones"}}, {"departamento": {"id": "54098", "nombre": "San Ignacio"}, "lat": -27.2933473519193, "lon": -55.4592623960159, "municipio": {"id": "540462", "nombre": "San Ignacio"}, "provincia": {"id": "54", "nombre": "Misiones"}}], "54091": [{"departamento": {"id": "54091", "nombre": "Ober\u00e1"}, "lat": -27.6772283781459, "lon": -54.9694390877479, "municipio": {"id": "540406", "nombre": "Panamb\u00ed"}, "provincia": {"id": "54", "nombre": "Misiones"}}, {"departamento": {"id": "54091", "nombre": "Ober\u00e1"}, "lat": -27.5706570338854, "lon": -55.0593874576337, "municipio": {"id": "540392", "nombre": "Los Helechos"}, "provincia": {"id": "54", "nombre": "Misiones"}}, {"departamento": {"id": "54091", "nombre": "Ober\u00e1"}, "lat": -27.4190588795896, "lon": -55.1800539155609, "municipio": {"id": "540378", "nombre": "Gral. Alvear"}, "provincia": {"id": "54", "nombre": "Misiones"}}, {"departamento": {"id": "54091", "nombre": "Ober\u00e1"}, "lat": -27.5607188356084, "lon": -55.1766194604071, "municipio": {"id": "540385", "nombre": "Guaran\u00ed"}, "provincia": {"id": "54", "nombre": "Misiones"}}, {"departamento": {"id": "54091", "nombre": "Ober\u00e1"}, "lat": -27.4727246661256, "lon": -55.2627854314175, "municipio": {"id": "540413", "nombre": "San Mart\u00edn"}, "provincia": {"id": "54", "nombre": "Misiones"}}, {"departamento": {"id": "54091", "nombre": "Ober\u00e1"}, "lat": -27.3573476620484, "lon": -55.2012287052642, "municipio": {"id": "540371", "nombre": "Colonia Alberdi"}, "provincia": {"id": "54", "nombre": "Misiones"}}, {"departamento": {"id": "54091", "nombre": "Ober\u00e1"}, "lat": -27.4524533921177, "lon": -55.1176353030915, "municipio": {"id": "540399", "nombre": "Ober\u00e1"}, "provincia": {"id": "54", "nombre": "Misiones"}}, {"departamento": {"id": "54091", "nombre": "Ober\u00e1"}, "lat": -27.2823846186064, "lon": -55.0718611745211, "municipio": {"id": "540364", "nombre": "Campo Viera"}, "provincia": {"id": "54", "nombre": "Misiones"}}, {"departamento": {"id": "54091", "nombre": "Ober\u00e1"}, "lat": -27.479248178282, "lon": -54.9662782162749, "municipio": {"id": "540357", "nombre": "Campo Ram\u00f3n"}, "provincia": {"id": "54", "nombre": "Misiones"}}], "54119": [{"departamento": {"id": "54119", "nombre": "25 de Mayo"}, "lat": -27.3576371079952, "lon": -54.4485723077611, "municipio": {"id": "540518", "nombre": "Colonia Aurora"}, "provincia": {"id": "54", "nombre": "Misiones"}}, {"departamento": {"id": "54119", "nombre": "25 de Mayo"}, "lat": -27.4811807319862, "lon": -54.7985455372284, "municipio": {"id": "540511", "nombre": "Alba Posse"}, "provincia": {"id": "54", "nombre": "Misiones"}}, {"departamento": {"id": "54119", "nombre": "25 de Mayo"}, "lat": -27.3331053109932, "lon": -54.6814951271054, "municipio": {"id": "540525", "nombre": "25 de Mayo"}, "provincia": {"id": "54", "nombre": "Misiones"}}], "54070": [{"departamento": {"id": "54070", "nombre": "Leandro N. Alem"}, "lat": -27.6390377593074, "lon": -55.2119796755876, "municipio": {"id": "540273", "nombre": "Gobernador L\u00f3pez"}, "provincia": {"id": "54", "nombre": "Misiones"}}, {"departamento": {"id": "54070", "nombre": "Leandro N. Alem"}, "lat": -27.5172025944507, "lon": -55.3054526023442, "municipio": {"id": "540252", "nombre": "Caa Yar\u00ed"}, "provincia": {"id": "54", "nombre": "Misiones"}}, {"departamento": {"id": "54070", "nombre": "Leandro N. Alem"}, "lat": -27.5656210470432, "lon": -55.4966789911991, "municipio": {"id": "540287", "nombre": "Olegario V. Andrade"}, "provincia": {"id": "54", "nombre": "Misiones"}}, {"departamento": {"id": "54070", "nombre": "Leandro N. Alem"}, "lat": -27.6492686317995, "lon": -55.5134640126559, "municipio": {"id": "540259", "nombre": "Cerro Azul"}, "provincia": {"id": "54", "nombre": "Misiones"}}, {"departamento": {"id": "54070", "nombre": "Leandro N. Alem"}, "lat": -27.5255595161851, "lon": -55.387471713783, "municipio": {"id": "540238", "nombre": "Almafuerte"}, "provincia": {"id": "54", "nombre": "Misiones"}}, {"departamento": {"id": "54070", "nombre": "Leandro N. Alem"}, "lat": -27.6166283094589, "lon": -55.3300134627001, "municipio": {"id": "540280", "nombre": "Leandro N. Alem"}, "provincia": {"id": "54", "nombre": "Misiones"}}, {"departamento": {"id": "54070", "nombre": "Leandro N. Alem"}, "lat": -27.7059575800021, "lon": -55.2673317321973, "municipio": {"id": "540266", "nombre": "Dos Arroyos"}, "provincia": {"id": "54", "nombre": "Misiones"}}, {"departamento": {"id": "54070", "nombre": "Leandro N. Alem"}, "lat": -27.7292589296399, "lon": -55.3978728810584, "municipio": {"id": "540245", "nombre": "Arroyo del Medio"}, "provincia": {"id": "54", "nombre": "Misiones"}}], "54105": [{"departamento": {"id": "54105", "nombre": "San Javier"}, "lat": -27.7257081241474, "lon": -55.1202260917369, "municipio": {"id": "540490", "nombre": "Moj\u00f3n Grande"}, "provincia": {"id": "54", "nombre": "Misiones"}}, {"departamento": {"id": "54105", "nombre": "San Javier"}, "lat": -27.8093657596003, "lon": -55.1540444936225, "municipio": {"id": "540497", "nombre": "San Javier"}, "provincia": {"id": "54", "nombre": "Misiones"}}, {"departamento": {"id": "54105", "nombre": "San Javier"}, "lat": -27.8358055260116, "lon": -55.2793085457893, "municipio": {"id": "540483", "nombre": "Itacaruar\u00e9"}, "provincia": {"id": "54", "nombre": "Misiones"}}, {"departamento": {"id": "54105", "nombre": "San Javier"}, "lat": -27.6952894204323, "lon": -55.0615940730353, "municipio": {"id": "540476", "nombre": "Ameghino"}, "provincia": {"id": "54", "nombre": "Misiones"}}], "54035": [{"departamento": {"id": "54035", "nombre": "Concepci\u00f3n"}, "lat": -27.8747754650079, "lon": -55.4252777120985, "municipio": {"id": "540133", "nombre": "Santa Mar\u00eda"}, "provincia": {"id": "54", "nombre": "Misiones"}}, {"departamento": {"id": "54035", "nombre": "Concepci\u00f3n"}, "lat": -27.9975106090559, "lon": -55.5161642960258, "municipio": {"id": "540126", "nombre": "Concepci\u00f3n de la Sierra"}, "provincia": {"id": "54", "nombre": "Misiones"}}], "54063": [{"departamento": {"id": "54063", "nombre": "Iguaz\u00fa"}, "lat": -26.0812488812615, "lon": -54.4721723500383, "municipio": {"id": "540210", "nombre": "Puerto Esperanza"}, "provincia": {"id": "54", "nombre": "Misiones"}}, {"departamento": {"id": "54063", "nombre": "Iguaz\u00fa"}, "lat": -25.6745733703587, "lon": -54.3757510644289, "municipio": {"id": "540217", "nombre": "Iguaz\u00fa"}, "provincia": {"id": "54", "nombre": "Misiones"}}, {"departamento": {"id": "54063", "nombre": "Iguaz\u00fa"}, "lat": -25.9807484033979, "lon": -54.3100077563901, "municipio": {"id": "540231", "nombre": "Colonia Wanda"}, "provincia": {"id": "54", "nombre": "Misiones"}}, {"departamento": {"id": "54063", "nombre": "Iguaz\u00fa"}, "lat": -25.8492622245534, "lon": -54.4206259685073, "municipio": {"id": "540224", "nombre": "Libertad"}, "provincia": {"id": "54", "nombre": "Misiones"}}], "54049": [{"departamento": {"id": "54049", "nombre": "General Manuel Belgrano"}, "lat": -26.1817820643676, "lon": -53.9464480272826, "municipio": {"id": "540175", "nombre": "Bernardo de Irigoyen"}, "provincia": {"id": "54", "nombre": "Misiones"}}, {"departamento": {"id": "54049", "nombre": "General Manuel Belgrano"}, "lat": -25.7226094659074, "lon": -54.011311196757, "municipio": {"id": "540182", "nombre": "Comandante A. Guacurary"}, "provincia": {"id": "54", "nombre": "Misiones"}}, {"departamento": {"id": "54049", "nombre": "General Manuel Belgrano"}, "lat": -25.9963679675545, "lon": -53.9385338267045, "municipio": {"id": "540189", "nombre": "San Antonio"}, "provincia": {"id": "54", "nombre": "Misiones"}}]}